상호명,도로명주소,위도,경도
씨엘,경상북도 경주시 건천읍 내서로 1110,35.8497316733204,129.102924756312
카페.꽃레스,경상북도 청도군 청도읍 한내길 236-6,35.6396217400033,128.748502385835
커피향기,경상북도 청도군 운문면 청려로 4728,35.7164346194096,128.915323033919
통통이네,경상북도 영주시 한정로 28-5,36.8034632679022,128.608105236825
카페알바트로스,경상북도 경주시 외동읍 외남로 1773-196,35.7165618879682,129.337859436523
컴포즈커피지곡점,경상북도 포항시 남구 지곡로 257,36.0292191054823,129.32393200863
소소,경상북도 경주시 동대로8번길 8,35.8559926535662,129.206394028019
위치무인카페,경상북도 안동시 화성길 36,36.568326205055,128.726584294272
메가커피경주용황점,경상북도 경주시 용황구획4길 35,35.8831354891696,129.227205452902
입체커피,경상북도 안동시 영가로 12-1,36.5642661403734,128.73322702536
카페봄봄,경상북도 포항시 남구 연일읍 동문로 39,35.9937145038054,129.351828979488
좋은인연,경상북도 경주시 양남면 진리길 15,35.6800285458577,129.467409631631
우드인스토리,경상북도 경주시 강변로152번길 7,35.8376426987014,129.203692118541
앤틱카페에델바이스,경상북도 포항시 남구 대이로83번길 9-3,36.0223662508968,129.339659830143
카페자연학교,경상북도 포항시 북구 흥해읍 성곡길 92-20,36.0818404568945,129.350738117821
노커포레스트,경상북도 청도군 이서면 철담길 71-25,35.6983831791527,128.663481614211
엘피카페블루,경상북도 포항시 남구 장기면 동해안로 3360-7,35.8829312477533,129.525762817312
꿈나무카페,경상북도 구미시 송동로7길 15-1,36.1438759889517,128.320816585951
프레슈어커피,경상북도 포항시 남구 대이로45번길 16,36.0189008229803,129.340078197492
이디야커피안동옥동점,경상북도 안동시 광명로 189,36.5637424694653,128.703471670103
바이버리커피,경상북도 경산시 옥산로 108,35.8247941845479,128.724560978654
커피에스페란토,경상북도 포항시 남구 오천읍 하원로47번길 9,35.9745113098201,129.403434835369
제이드826커피,경상북도 포항시 남구 연일읍 부조길291번길 14-16,35.9945338596975,129.312128699087
커피뉴빈,경상북도 경주시 용담로92번길 43-6,35.8675697521764,129.213977125968
이디야커피,경상북도 경산시 백자로 117,35.8157115860705,128.757742816981
카페도란도란,경상북도 구미시 송정대로6길 51-1,36.1149597425404,128.347647084181
커피베리,경상북도 의성군 의성읍 군청길 42,36.3519129108651,128.698162961173
카페뷰,경상북도 구미시 산동읍 강동로 862-7,36.1661995829086,128.452434423288
카페190,경상북도 포항시 남구 장기면 동해안로 3952-46,35.9264519759631,129.517922565175
고어라운드커피,경상북도 포항시 남구 대이로143번길 12-6,36.0278437804126,129.339031400513
커피,경상북도 경주시 양남면 동해안로 497,35.6871405836919,129.47322925885
삼경,경상북도 경주시 원효로 192,35.8415225331783,129.222014721227
라포미경산역점,경상북도 경산시 중앙로 8,35.8197302515405,128.728786653064
이디야커피도량롯데,경상북도 구미시 문장로 111,36.1428443995176,128.328979698683
커피정경,경상북도 예천군 호명면 양지2길 26,36.5772799115189,128.477626796145
호다실,경상북도 문경시 신흥1길 11-12,36.6002226664055,128.204373438094
커피샵,경상북도 경주시 갓뒤동녘길 33,35.8717883137091,129.219256996135
이디야구미,경상북도 구미시 산동읍 신당2로 29,36.1558751226299,128.431747928495
알리바바커피앤도넛,경상북도 경주시 중앙로 55,35.8449013576508,129.211428720001
빽다방영천,경상북도 영천시 충효로 74,35.9732333893899,128.937626610032
107페이지,경상북도 구미시 봉곡서로 87-34,36.1586411539654,128.306272636143
풀꽃뜨락,경상북도 경산시 와촌면 대한길 37-3,35.9680930042871,128.788965248537
대정연가,경상북도 봉화군 춘양면 달구벌길 62-152,36.9996385261318,128.828447221919
카페제이제이,경상북도 경주시 양남면 양남항구길 14-8,35.6903696787768,129.474492849226
미드나잇블루,경상북도 포항시 남구 오천읍 정몽주로 577,35.9697042869404,129.415999648273
바실라상사사회적협동조합,경상북도 경주시 금성로395번길 22,35.8530995204001,129.204601026185
"지금은,구룡포",경상북도 포항시 남구 구룡포읍 구룡포길 126,35.9914474739647,129.558745462797
봄봄,경상북도 청도군 청도읍 청화로 191-1,35.6418658798534,128.745630319056
읍천리382,경상북도 안동시 옥동2길 51-21,36.561014513373,128.70148077488
더카페동아구미점,경상북도 구미시 송원동로 28,36.1200041850029,128.348613564369
카페라샹떼,경상북도 영천시 청통면 청통로 894-43,35.9899959261908,128.796924262127
길휴게실,경상북도 구미시 선산읍 단계동길 24,36.2395178878857,128.300924836492
스텔라,경상북도 경산시 들뫼길 306,35.7888810676015,128.767399832951
레쉬커피쇼룸,경상북도 상주시 동수로 126,36.421400146561,128.155751349872
카페398,경상북도 김천시 우래1길 27,36.1216367827894,128.180796842995
이디야포항이동골프점,경상북도 포항시 남구 희망대로 614,36.0130426024592,129.340899727388
곰이랑놀궁리,경상북도 봉화군 봉화읍 교촌길 44,36.8868361648639,128.73623261332
나우커피구미시호반점,경상북도 구미시 산동읍 해마루공원로 115,36.1445686583897,128.427930044913
정다방,경상북도 포항시 남구 호미곶면 해맞이로 207,36.0792933946751,129.559045565394
커피와,경상북도 경주시 알천남로 124,35.8525412739837,129.215286798168
꿈앤카페시소,경상북도 영주시 시청로 1,36.8062447470535,128.6226514548
커페바흐,경상북도 경주시 하동1길 43-12,35.793672652259,129.309426558154
하삼동커피경주협성휴포레점,경상북도 경주시 용황로 74,35.8830546503269,129.226296068625
디저트39,경상북도 포항시 남구 대이로111번길 5,36.0249810423787,129.340358675625
소리길121,경상북도 김천시 한일길 5,36.1351736174792,128.095340213489
스너그커피하우스,경상북도 예천군 예천읍 맛고을길 30-1,36.6554059859902,128.452293582457
빌리브라운,경상북도 칠곡군 석적읍 남율로9길 30,36.0677495139291,128.402446698444
카페테디,경상북도 경산시 박물관로 29,35.8156553743781,128.762356791201
스윗띵,경상북도 의성군 안계면 용기12길 23,36.3822349036873,128.437521001644
메가엠지씨커피비산,경상북도 구미시 신비로 115,36.1211515374736,128.374591289936
꼬치의품격울진죽변점,경상북도 울진군 죽변면 죽변북로 31,37.062211589695,129.42075649705
카페행복,경상북도 울진군 울진읍 울진중앙로 126,36.9927529044236,129.401309933345
빠네투아,경상북도 구미시 산호대로 1192-1,36.133120310213,128.457721992566
입체커피,경상북도 예천군 호명면 양지3길 7,36.5776329453382,128.479483839096
빽다방,경상북도 구미시 인동중앙로 8,36.1062814249427,128.420402919438
카페죽도소년,경상북도 포항시 북구 죽도시장3길 3-4,36.0354081045046,129.365934030679
투썸플레이스보문호수점,경상북도 경주시 천군1길 8-18,35.8344314660941,129.27559707328
소담길,경상북도 봉화군 봉화읍 교촌길 62,36.8878071690482,128.738048162858
여원,경상북도 영천시 화남면 천문로 1765-12,36.0724783009843,128.902889176684
카페루앤비,경상북도 포항시 북구 흥해읍 영일만산단로 73,36.099335159391,129.400032460208
밀리리터커피로스터리,경상북도 안동시 복주1길 12,36.5605790842477,128.698896263433
물치상회,경상북도 울진군 후포면 울진대게로 289-1,36.6825846654155,129.463876520595
마음을담아,경상북도 영주시 대학로240번길 14,36.8167296770699,128.606136589771
그린찻집울진해맞이케이블카,경상북도 울진군 근남면 망양정로 1065-27,36.9655876748736,129.410210924036
인사동갤러리,경상북도 포항시 북구 죽장면 수목원로 540,36.2185968981113,129.249874464434
맥스웰하우스,경상북도 안동시 경동로 130,36.5749017939702,128.676600311023
해리엇커피,경상북도 포항시 남구 호미곶면 호미곶길 23,36.0703929721854,129.569137899762
별카페,경상북도 김천시 연화지1길 8,36.1380407918634,128.094010318217
마시그래이,경상북도 포항시 북구 포스코대로 250,36.02185926122,129.351910208624
카페베리스,경상북도 경주시 유림로 79,35.8689639475502,129.219590203483
더벤티포항,경상북도 포항시 남구 연일읍 유강길9번길 45,36.0043833636843,129.315519562528
천군,경상북도 경주시 경감로 627,35.8343857802987,129.290848040095
베베르,경상북도 경주시 알천북로249번길 8-12,35.8476172904758,129.227111824854
가비그라운드,경상북도 칠곡군 왜관읍 관문로 12,35.9878786483438,128.396151807479
카페유로,경상북도 경산시 청운1로 15,35.8381167240833,128.752266305442
엔젤리너스커피구미진평점,경상북도 구미시 인동32길 21,36.092898062916,128.430314955308
카페,경상북도 포항시 남구 대송면 운제로 360-22,35.9573443938428,129.362626475483
그리고청진,경상북도 포항시 북구 청하면 해안로2000번길 1,36.1795277775773,129.390530845006
진다방,경상북도 포항시 남구 중앙로121번길 19,36.024932270457,129.366241324622
커피향,경상북도 포항시 북구 새천년대로 1055,36.0630829533762,129.370841118359
커피가술술,경상북도 경주시 갓뒤길20번길 17,35.8698883846816,129.219083938212
쁠레지흐,경상북도 포항시 북구 학전로111번길 40,36.0635332202699,129.371659222666
예커피,경상북도 포항시 북구 흥해읍 해안로1774번길 59,36.165942488181,129.398615429107
화양연화,경상북도 청도군 화양읍 도주관로 166,35.6493904968915,128.707038641297
커피에반하다,경상북도 상주시 함창읍 함창중앙로 137,36.5694585268941,128.179656279429
"카페,인",경상북도 영천시 임고면 포은로 453-51,36.0198563408132,128.970518419195
비밀공간,경상북도 경주시 포석로1068번길 11,35.8363369830006,129.210756149425
카페라온,경상북도 청도군 화양읍 양정길 94,35.64188166499,128.729807320005
라포미,경상북도 경산시 경안로 271,35.8317743385203,128.734309129149
퍼스펫파크,경상북도 경주시 외외1길 108-4,35.83031062347,129.167622875813
더프레젠트,경상북도 경산시 선비길 21,35.8163180108855,128.726675044712
단스부띠끄,경상북도 경산시 대학로28길 39,35.8304461493135,128.737783325365
어반바이브,경상북도 포항시 남구 운하로24번길 14,36.0270835089843,129.377506386401
카페,경상북도 울진군 울진읍 연호로 24,36.9935713459028,129.403728948864
더벤티,경상북도 경주시 원효로 118,35.8418846694953,129.21385126165
대장다방,경상북도 성주군 초전면 대장1길 35-2,35.972823513824,128.262697683285
예그리나,경상북도 영주시 선비로 184,36.8208962493914,128.619519484807
커피메카,경상북도 성주군 성주읍 시장길 43-1,35.9150327062458,128.285497620711
카페노네,경상북도 포항시 북구 기계면 기계로77번길 11-42,36.0679784320147,129.209056605949
커피프렌즈,경상북도 포항시 남구 오천읍 정몽주로 635,35.9745831513193,129.414201940874
카페가베35,경상북도 포항시 북구 흥해읍 중성로42번길 17,36.1070600140691,129.3480489994
강남카페,경상북도 의성군 단밀면 주속길 50,36.3751519632792,128.382079996972
밀라플라,경상북도 영주시 원당로19번길 30,36.818838180566,128.618438061841
새소리카페,경상북도 경주시 안강읍 구부랑4길 14-19,36.0038091598396,129.19559792767
카페플레이,경상북도 경주시 문무대왕면 감은로 85,35.7879194597142,129.442024886404
하삼동구미북삼오태점,경상북도 칠곡군 북삼읍 금오대로 288,36.0705590240211,128.348595095821
크레센트,경상북도 경산시 경청로230길 19,35.8063225663846,128.742860150329
카페982,경상북도 경주시 건천읍 내서로 982,35.8584146755186,129.093656332341
써니,경상북도 청도군 화양읍 청화3길 20-34,35.6504012611941,128.735428462328
플로리,경상북도 김천시 혁신2로 15,36.1148820629608,128.18342508438
만랩커피경북영양점,경상북도 영양군 영양읍 여남길 14,36.6666782921692,129.11340688748
효임,경상북도 상주시 동수로 36,36.4173261148112,128.156033141446
공차구미구평점,경상북도 구미시 인동36길 7,36.0937455599093,128.432740472152
하삼동커피,경상북도 구미시 칠성로2길 47,36.1222162793647,128.362476355711
훼임,경상북도 구미시 장천면 강동로 250,36.1315336800579,128.494110229036
아델라베이크,경상북도 경주시 포석로1095번길 38,35.8369276487282,129.207588480169
녹아,경상북도 경주시 포석로1068번길 21,35.8360922012296,129.21179285293
소나무카페,경상북도 안동시 서동문로 141,36.5669144021422,128.727554226315
좋은커피,경상북도 경산시 원효로7길 35,35.8244936297883,128.738403335406
모리커피영일대비치점,경상북도 포항시 북구 삼호로 184-2,36.0548767836404,129.376780853635
머무는,경상북도 안동시 옥동길 7,36.5593087683461,128.698828966724
커피선,경상북도 포항시 북구 청하면 해안로2414번길 20,36.206566257655,129.37159341431
모리커피,경상북도 포항시 북구 중앙상가길 31,36.0379212855081,129.363669401912
드반트,경상북도 경주시 안강읍 구부랑길 44-6,36.0013599855028,129.197180299136
유앤아이커피,경상북도 경주시 외동읍 우박길 49-7,35.6789470907813,129.319457551521
카페비엔,경상북도 영천시 한방로 27,35.9435100268466,128.932864083852
에쏘커피,경상북도 칠곡군 가산면 경북대로 1556,36.084698058035,128.539075753959
짜빠따김천,경상북도 김천시 혁신3로 19,36.1167579963907,128.182618537169
카페송윤,경상북도 김천시 남면 종상길 4-11,36.1253208702426,128.204590848556
그리고봄,경상북도 경산시 성암로12길 36-11,35.8202014960901,128.723888445279
고래까페,경상북도 영덕군 병곡면 병곡1길 106,36.6007618262889,129.412337175808
카페비앤비,경상북도 칠곡군 지천면 지천로 291,35.9615181912316,128.497073416219
이카페,경상북도 영주시 신재로12번길 41-2,36.8331228218632,128.611277163699
휴레스토랑,경상북도 청도군 운문면 운문로 1520,35.6831149034155,128.964666959861
카페케이,경상북도 구미시 인동남길 96,36.0980675040892,128.42638952895
카페데로토,경상북도 경산시 압량읍 주들길 9,35.8352906960217,128.768709843264
커피베이왜관점,경상북도 칠곡군 왜관읍 2번도로길 11-2,35.9889214780245,128.396966615288
카페카리타스,경상북도 구미시 백산로 118,36.119984682125,128.346014028231
달꿈케이크,경상북도 안동시 풍천면 풍요3길 34,36.5755779083099,128.497147779784
복이네,경상북도 포항시 남구 중앙로122번길 12,36.0240737153166,129.369610280945
동네커피,경상북도 김천시 혁신3로 22,36.1169033863396,128.181841287755
복다방,경상북도 칠곡군 석적읍 유학로 28,36.0785479857502,128.4127830029
포레스트리,경상북도 경산시 자인면 원효로161길 126,35.8150624078641,128.822239545804
언덕위에봄날,경상북도 칠곡군 약목면 남계5길 189-3,36.023839470782,128.350275392389
코스모스,경상북도 청도군 금천면 금천로 718-3,35.7439190071222,128.862447550092
가넷,경상북도 포항시 북구 새천년대로1123번길 9,36.0679246296852,129.371446850942
꽃향기이야기,경상북도 상주시 함창읍 새잼이길 47,36.5796260211659,128.166103064852
새코미,경상북도 포항시 북구 용당로 119,36.0379258968185,129.362471079683
티타임커피사곡점,경상북도 구미시 상사동로 133,36.0964506423754,128.358682096119
수다방,경상북도 영주시 풍기읍 인삼로 17,36.8718941549544,128.523872328826
디디디,경상북도 구미시 박정희로 529,36.1219302331946,128.346444707968
향기내는사람들히즈빈스한,경상북도 포항시 북구 흥해읍 한동로 558,36.1023173223365,129.389268792128
커피마마,경상북도 문경시 마성면 은성로 1041,36.6499732904413,128.081520573979
퍼팩트,경상북도 포항시 남구 오천읍 냉천로270번길 7,35.9703627762587,129.409060003071
슬로리드,경상북도 포항시 북구 새천년대로1259번길 6,36.074927573232,129.384734808441
오오커피,경상북도 포항시 북구 삼호로 62-1,36.0460351922234,129.369746465394
플라잉스톤,경상북도 영주시 부석면 부석사로 313,36.9951130036846,128.681360644689
구미지역자활센터카페카리타스,경상북도 구미시 인동가산로 392,36.0900862941773,128.45465182554
선화,경상북도 경주시 태종로 736-3,35.8389870320796,129.208936872166
볕내,경상북도 구미시 봉곡서로5길 17,36.1527233655433,128.304827111078
랑,경상북도 안동시 송하1길 110-26,36.5674914842858,128.692702033221
동천카페동행,경상북도 경주시 초당길155번길 16,35.8497845901697,129.230222735742
수미카페,경상북도 봉화군 물야면 문수로 460,36.932212307029,128.741574246523
마라나타커피로스터스,경상북도 예천군 호명면 양지로 19,36.5771246757624,128.480374603291
리아,경상북도 김천시 남면 옥산길 119,36.1112421195485,128.188392814104
더벤티용흥점,경상북도 포항시 북구 대안길 59,36.0414540807542,129.350935691813
피스오브피스,경상북도 안동시 평화윗길 90-4,36.5701278140634,128.714791644832
포석정,경상북도 경주시 포석로 733-1,35.8065002577877,129.209395851161
버디,경상북도 청도군 매전면 선암로 1-8,35.6735765889359,128.867842901828
팔도커피경산,경상북도 경산시 중앙로 70-1,35.8226322189774,128.734756134772
다즐링,경상북도 구미시 송원서로 35,36.1210583149521,128.342497213531
헤리티지,경상북도 포항시 북구 신광면 비학로 558-96,36.1023911635642,129.260336056966
카페봉,경상북도 경산시 하양읍 대경로105길 40-2,35.9032858034657,128.800418840641
소디스커피대,경상북도 포항시 남구 대이로1번길 16,36.0151708349361,129.34319878136
킨포크,경상북도 안동시 경북대로 679-17,36.5903969301893,128.699444412967
문,경상북도 상주시 경상대로 3047-2,36.4191534170276,128.15076224826
13월,경상북도 경산시 청운1로 11,35.8379027063815,128.751899005913
더리터영주역점,경상북도 영주시 선비로 72,36.8114555414249,128.623993744406
커피푸,경상북도 경산시 경산로34길 23,35.8242152272684,128.729381008152
앱트커피,경상북도 포항시 북구 삼호로 89,36.048412961708,129.370664385173
카페늘봄,경상북도 영주시 선비로 223,36.823737778236,128.617244439141
리필,경상북도 구미시 여헌로 80,36.1086599973182,128.425747018178
워크커피,경상북도 경주시 태종로 702-1,35.8385570109006,129.205089516373
리버스,경상북도 성주군 성주읍 참별로 2503,35.9150461910908,128.255503938908
모리커피,경상북도 포항시 남구 오천읍 원동로 46,35.9670256501166,129.403124953732
아이키친,경상북도 예천군 호명면 새움3로 20,36.57626013785,128.489084739636
카페은,경상북도 구미시 산호대로29길 13-14,36.1379141654514,128.418571565412
풀문,경상북도 청도군 청도읍 청려로 2346-4,35.658214077966,128.771736128368
커피왕,경상북도 경산시 하양읍 하양로 96,35.9129619321198,128.818376388963
컴포즈커피울진죽변점,경상북도 울진군 죽변면 죽변북로 2,37.0597424949234,129.421519971985
달달커피,경상북도 안동시 경동로 852,36.5601719745538,128.749598878316
메가커피,경상북도 포항시 남구 대이로 50,36.0198568611141,129.341625331084
용두베스트커피,경상북도 포항시 북구 청하면 해안로 2255,36.1944811375531,129.372372122027
카페데이플라워,경상북도 경주시 외동읍 개곡공단길 30-67,35.7243632770973,129.332507747321
포포시즌,경상북도 칠곡군 왜관읍 중앙로9길 6-1,35.9911238093912,128.398741060859
더리터구미,경상북도 구미시 고아읍 문성로3길 16,36.1544991825046,128.34773260942
아틀리에빈진량점,경상북도 경산시 진량읍 다문로 59,35.875275100868,128.817534579273
롬브,경상북도 포항시 남구 중흥로 29,36.0088862688693,129.346674955976
멜로우블랙,경상북도 안동시 강남1길 81,36.5496875137008,128.732743038687
1리터커피다스,경상북도 영천시 중앙동1길 28,35.9731518791293,128.934210618263
셔터룸,경상북도 구미시 봉곡로22길 19,36.153766301957,128.31281066609
킴스마운틴커피클래스,경상북도 안동시 앙실로 57,36.5446057173015,128.696473971871
개미푸드개미food,경상북도 경산시 남매공원로2길 34,35.8322886467574,128.744474560672
해밀랑,경상북도 영주시 영주로161번길 8,36.82592615121,128.617531051422
읍천리구미,경상북도 구미시 봉곡남로 87-1,36.1494425283255,128.311882236864
열두달:)열두달:,경상북도 포항시 북구 월막길 2,36.0491555673213,129.367192525685
컴포즈커피울릉도동점,경상북도 울릉군 울릉읍 도동3길 27,37.4840829911187,130.904853832374
더벤티포항,경상북도 포항시 남구 상도남로 11,36.0081674823371,129.34245879999
카페봄봄옥곡점,경상북도 경산시 경산로 40,35.8139395511397,128.733923572813
빈이커피칠곡석적점,경상북도 칠곡군 석적읍 서중리5길 74,36.075045369562,128.406502938763
카페봄봄경산중방점,경상북도 경산시 중앙로 76-1,35.8228992842124,128.7353008786
슈츠,경상북도 칠곡군 동명면 남원로3길 14,36.0125045323795,128.586984977282
해파랑카페,경상북도 영덕군 강구면 영덕대게로 108,36.3593551701459,129.390302739403
퍼즈커피로스터,경상북도 경주시 봉황로 33-2,35.8426359711885,129.209955268482
화이트리치티카페,경상북도 경산시 압량읍 고분길 28,35.8424210068974,128.757210816976
태담컴퍼니선산휴게소하지점할리스커피,경상북도 구미시 옥성면 중부내륙고속도로 129,36.2752460461178,128.249281691609
카페37.5,경상북도 경산시 한의대로 50,35.8017868973091,128.775998987272
이디야충효서라벌,경상북도 경주시 충효녹지길 58-2,35.8424457363044,129.184725604175
달보드레,경상북도 의성군 의성읍 동서1길 53,36.3499188056157,128.700105999069
히든씨,경상북도 경주시 감포읍 동해안로 2560,35.8294787283,129.512222066538
더뮤즈,경상북도 경주시 공영주택길 39-10,35.8549508357885,129.211404456802
카페101,경상북도 경주시 원효로105번길 7-4,35.8427028833561,129.212258688345
붕세권카페,경상북도 영주시 중앙로 97,36.8240565393554,128.625228203889
이디야경주동국대,경상북도 경주시 석장길 59-2,35.8612356381362,129.190375017597
놀숲포항,경상북도 포항시 북구 흥해읍 초곡지구로52번길 20-7,36.0974441159693,129.337579551705
비엣문덕점,경상북도 포항시 남구 오천읍 원동로 109,35.9727964558201,129.402107283349
제이원카페,경상북도 청송군 진보면 영당로 54,36.5315043870773,129.048485400443
아틀리에빈대평점,경상북도 경산시 경안로67길 13-6,35.8357430641495,128.732353317026
더샵,경상북도 경주시 강동면 강동로 8,35.9877832707855,129.274534798219
더벤티경산중방점,경상북도 경산시 경안로38길 17,35.825840733898,128.737729633965
에제르,경상북도 포항시 북구 청하면 비학로 1889-157,36.1976227379234,129.317355317411
카페해나무,경상북도 칠곡군 지천면 지천로 1066,36.0239486708276,128.480145618541
카페비,경상북도 포항시 남구 포스코대로 334-4,36.0177426054579,129.359705174349
커피아셀,경상북도 김천시 농소면 용시길 88,36.1132842085761,128.173024409141
비에이치씨치킨경주동산점,경상북도 경주시 천북면 동산3길 23-59,35.8977023012811,129.268614019926
라떼는말이야,경상북도 예천군 은풍면 은풍로 84-2,36.7446694631541,128.44289531484
아담,경상북도 상주시 왕산로 347,36.4208605690611,128.161649420219
너와나커피,경상북도 경산시 백자로20길 44-1,35.8124363446034,128.761142011233
모리커피포항흥해점,경상북도 포항시 북구 흥해읍 중성로 27,36.108785350688,129.3460904557
카페카파이,경상북도 포항시 북구 해동로 261,36.0426766835518,129.370265328878
텐퍼센트커피경주,경상북도 경주시 안강읍 안강중앙로 219,35.9924542139782,129.224105657174
마법의숲,경상북도 경주시 강동면 인좌안길 32-27,35.9879723090283,129.264335555456
마시그레이,경상북도 경산시 청운로 25,35.8377402725339,128.753369655503
모리커피포항죽도점,경상북도 포항시 북구 중흥로 333,36.0318053560203,129.364950896958
커피드링킹,경상북도 김천시 지례면 장터길 67-3,35.9878620711448,128.029364098319
커피테이크아웃,경상북도 포항시 북구 학전로 53,36.05722723571,129.373791769892
오하다,경상북도 구미시 형곡로 15,36.1159800588937,128.33754312098
리보니,경상북도 포항시 남구 오천읍 남원로 81,35.9702430893745,129.400809322272
탐앤탐스안동신도청점,경상북도 안동시 풍천면 호수공원2길 12,36.5689433260678,128.501831287312
카페데세르,경상북도 안동시 강남10길 10,36.5483970003473,128.735958855591
레스트205,경상북도 경주시 숲머리길 205,35.8450495529274,129.257535622599
카페로사인동점,경상북도 구미시 인동중앙로3길 19,36.1079982096936,128.419168078067
레비커피,경상북도 문경시 장평길 421,36.6431442406641,128.190227855428
눈꽃이피다,경상북도 경산시 경산로 105-1,35.8180937806526,128.729623804169
데이지데이,경상북도 구미시 봉곡남로 126-1,36.1505321342095,128.315687223394
디에스엠알오카페담북,경상북도 포항시 북구 삼호로 36,36.0437593161227,129.368586230295
요거프레소,경상북도 칠곡군 왜관읍 중앙로 195,35.9924660045903,128.398969631857
엘린,경상북도 경산시 원효로40길 64,35.8139862971185,128.754041533746
카페1227,경상북도 포항시 북구 죽도로28번길 39,36.0309319929962,129.361707086634
켈티스커피,경상북도 영주시 대학로261번길 32,36.8190902588568,128.60090946463
브리즈나인,경상북도 포항시 남구 구룡포읍 용주로8번길 25,35.9921025032778,129.564502754412
모리커피포항,경상북도 포항시 남구 효성로 26,36.0062155958801,129.336469357389
포시즌,경상북도 포항시 남구 중흥로 99,36.0141768010548,129.350658598256
다온라온,경상북도 경주시 북천길 10,35.8538333473163,129.219413779183
커피쿡문경,경상북도 문경시 당교로 233,36.586144406148,128.188646298324
미뇽빅토리아,경상북도 영주시 선비로 215,36.8240693953233,128.615857116794
컴포즈커피울진북면점,경상북도 울진군 북면 울진북로 2124,37.1059280609957,129.373669266387
캔버스진량호반점,경상북도 경산시 진량읍 선항4길 27,35.8743731024539,128.809651639345
경천섬카페커피랑썸타다,경상북도 상주시 도남2길 174,36.4466147674112,128.256343400014
텐퍼센트커피경주,경상북도 경주시 백률로58번길 1,35.8565268388204,129.225743444895
수피아,경상북도 청도군 풍각면 장기길 379,35.6809686399871,128.56461744959
커피쉼,경상북도 경주시 금성로 440,35.8568244868726,129.207923388194
소디스커피문덕점,경상북도 포항시 남구 오천읍 냉천로236번길 20,35.9736612895919,129.406757047436
파스마,경상북도 경산시 한의대로 96,35.8057841532735,128.776712805928
레프트뱅크도량점,경상북도 구미시 송동로 60,36.1380081699923,128.324314983474
카페홀빈,경상북도 청도군 금천면 청려로 4540,35.7038893095607,128.902040729709
카페캔버스,경상북도 경산시 백자로 58,35.8110905897223,128.754434641099
더벤티경산펜타힐즈점,경상북도 경산시 펜타힐즈2로 45,35.8280163942936,128.719310966545
모리커피포항환호공원점,경상북도 포항시 북구 삼호로 418,36.0688032523721,129.393718851463
리디아,경상북도 칠곡군 왜관읍 2번도로길 34,35.9908197251703,128.39802973205
그린스테어,경상북도 경산시 경안로56길 46-12,35.8314677050007,128.740216712665
리치,경상북도 경산시 원효로32길 11,35.8196579044856,128.753674635429
더리터풍기동양대점,경상북도 영주시 풍기읍 동양대로 107-3,36.8788647256656,128.532994983888
코피카야,경상북도 영주시 대동로13번길 2-3,36.8156127164386,128.604267199479
마시그래이성주점,경상북도 성주군 성주읍 심산로 112,35.9187315569801,128.284059356422
카페온전,경상북도 경주시 중앙로 12,35.8409408921413,129.211811254615
블랙라인커피,경상북도 구미시 산호대로29길 8-3,36.137268543238,128.420201478163
카페다락,경상북도 상주시 발산로 270,36.4480467655488,128.183492287145
멍애견카페,경상북도 영천시 임고면 포은로 185,35.9938960939219,128.966484941837
발렌틴,경상북도 포항시 북구 양학로9번길 25,36.0228074759315,129.350140240244
투썸플레이스칠곡,경상북도 칠곡군 동명면 한티로 502,36.0011418470884,128.593755585136
소소홍홍,경상북도 청도군 화양읍 도주관로 114,35.6476255205974,128.702131134884
카페정원,경상북도 영천시 장수로 22-1,35.9640573172204,128.921464885328
카페차이포항,경상북도 포항시 남구 효성로 55,36.0081961608583,129.33908726543
몰리밀키,경상북도 경산시 펜타힐즈2로 17,35.8267963943489,128.716831895028
이세븐1107,경상북도 구미시 산호대로27길 18-1,36.1385675788547,128.41728611902
연정구이,경상북도 영천시 완산중앙1길 10,35.9629115743206,128.935586642374
커피스토리,경상북도 포항시 남구 문예로 137-21,36.018454015802,129.368470229777
끄레아,경상북도 경주시 양정로278번길 8,35.8575622586324,129.224962251792
빈이커피산동점,경상북도 구미시 산동읍 신당1로4길 17-5,36.1553236907758,128.42969998323
경주컵넛,경상북도 경주시 놋전1길 23,35.8324131346186,129.213762317846
구구커피숍,경상북도 성주군 초전면 대장길 85-17,35.9723178072023,128.263139530402
어벤더치,경상북도 경산시 대학로9길 8,35.8352147526168,128.728817544578
브릿지커피,경상북도 경주시 첨성로 105,35.8334201760023,129.213999014999
스코닛,경상북도 포항시 북구 흥해읍 초곡지구로83번길 8,36.0940112726742,129.340730494861
아리솔찻집,경상북도 구미시 선산읍 성황6길 33,36.2364749787125,128.288564165226
어글리디저트UglyDissert,경상북도 포항시 북구 장량로113번길 18,36.0834405342564,129.392822504209
보라빛향기,경상북도 경주시 동대로14번길 2,35.8557221889688,129.205504244999
커피마시기좋은날,경상북도 영천시 호국로 55-3,35.973508972425,128.943861211493
산뽀카페,경상북도 경주시 외동읍 산업로 1885-34,35.6810562184604,129.3284622068
커피공간,경상북도 상주시 인봉2길 5,36.4180015274848,128.163171195944
헤이안,경상북도 포항시 북구 해안로 219,36.0645144466253,129.387416090409
Cafe구산블루스,경상북도 울진군 기성면 기성로 108,36.753308832093,129.467212593081
투썸플레이스대구한의대갤러리점,경상북도 경산시 한의대로 1,35.7940357392351,128.777361802181
모리커피포항,경상북도 포항시 남구 연일읍 동문로 31,35.9929768782495,129.351705492114
봄봄위덕점,경상북도 경주시 강동면 동해대로 261,36.0161316427175,129.282601157921
미엘,경상북도 김천시 용전4로1길 20,36.12190884135,128.191328871011
커피점빵앤펍,경상북도 영주시 대학로 175,36.811498015364,128.607081625739
텐퍼센트영주가흥점,경상북도 영주시 대동로13번길 2-19,36.816821216529,128.604086153925
이디아커피경주용,경상북도 경주시 승삼북길 27,35.8782390932384,129.230972657
소디스커피,경상북도 경주시 안강읍 비화원로 60,35.9907124799698,129.226097104824
영웅이야기,경상북도 포항시 북구 법원로112번길 34,36.0843295173387,129.389218675911
프라하,경상북도 경주시 천북면 서낭길 3-13,35.8683729792406,129.276473040287
스마일커피&쥬스,경상북도 칠곡군 가산면 학하4길 57-105,36.0864004562115,128.486665586215
이디야커피,경상북도 경산시 청운로 18,35.8371554914446,128.753198092482
더벤티경주,경상북도 경주시 다불로 11,35.8768391172626,129.228625462155
카페랑,경상북도 김천시 혁신로 185,36.1175220582075,128.183953321301
풍커피,경상북도 경주시 불국로 156,35.7837206246166,129.309606196331
착한커피,경상북도 칠곡군 북삼읍 안산4길 9,36.0660643025922,128.334976324764
커피멜로우,경상북도 구미시 봉곡로13길 14,36.149918196494,128.309183662816
카페아하바,경상북도 김천시 대항면 영남대로 956-17,36.1316534015064,128.04108355625
카페노잉,경상북도 포항시 남구 중흥로114번길 8,36.0145408824121,129.35273921047
빽다방왜관역점,경상북도 칠곡군 왜관읍 중앙로8길 7,35.9920862053447,128.399344806025
그냥커피주세요,경상북도 포항시 남구 청림서길10번길 8-2,35.9958099461211,129.413205620008
너랑케키,경상북도 구미시 구미대로32길 5-1,36.1207808197021,128.363269596159
이터널,경상북도 경산시 백양로34길 15-4,35.8095365882296,128.759321791742
기네스빈커피,경상북도 포항시 남구 희망대로 1173,36.0341593768853,129.380536690376
마리안이삭푸드서비스,경상북도 경산시 진량읍 대구대로 201,35.9045278677195,128.842827911436
커피방,경상북도 울진군 근남면 산포3길 162,36.9610385106342,129.414641007122
투썸플레이스경북,경상북도 안동시 문화광장길 38,36.5647934512186,128.731008799661
오태북삼봄봄,경상북도 구미시 금오대로 294-1,36.0709810795858,128.349129847548
베리베리베리,경상북도 영덕군 영덕읍 화개서길 2,36.4159486780713,129.36693724749
디그커피,경상북도 경산시 중방로 28,35.8299804099621,128.737303091535
카페모스타르,경상북도 김천시 아포읍 금계2길 59,36.1503823957433,128.274001524124
"학하커피,학하민박",경상북도 칠곡군 가산면 학하4길 43-1,36.0950773055018,128.485086612788
러브스토리인시애틀,경상북도 경주시 원효로 54,35.8421087607299,129.206814686316
봄봄조각공원점,경상북도 김천시 조각공원길 380,36.1321994386313,128.105947181056
콤마리버사이드,경상북도 청도군 화양읍 산성강변길 464,35.6545441473048,128.737443263175
아담한,경상북도 안동시 풍천면 풍요6길 29,36.5758626845641,128.500166488797
므므흐스부엉이버거,경상북도 칠곡군 왜관읍 매원1길 9,35.9928569332701,128.429327344185
모리커피경주용황점,경상북도 경주시 용황로7길 8,35.8849491675685,129.226114849842
유니드커피,경상북도 포항시 북구 법원로97번길 4,36.0838016790408,129.38499035291
영커피구미,경상북도 구미시 송원서로 15,36.1191746644931,128.342477924524
카페오하이,경상북도 경주시 포석로 1070,35.83650009623,129.209773541491
팸카페,경상북도 울진군 죽변면 하죽로 1842-6,37.0543405431387,129.412087854769
봄봄점촌점,경상북도 문경시 중앙로 123,36.5960488439234,128.199735295283
메가커피,경상북도 포항시 남구 지곡로 257,36.0292191054823,129.32393200863
연변다방,경상북도 문경시 중앙2길 9-1,36.5938773297216,128.19947264321
커피인장명달,경상북도 구미시 형곡로41길 6-4,36.1093355565091,128.341413340634
오픈오프,경상북도 포항시 북구 장량로139번길 20-4,36.0834642482357,129.395432049402
원휴게실,경상북도 의성군 봉양면 도리원3길 7,36.298997841367,128.578858557997
닥터지바고,경상북도 상주시 경상대로 2749-41,36.3929906053395,128.150265813679
길커피,경상북도 김천시 용암로 46-1,36.1235062306966,128.129109525018
카페렛잇비,경상북도 경산시 삼풍로 22,35.8224766967997,128.755483054038
에그카페24,경상북도 포항시 남구 중앙로 31,36.0160290709075,129.370103381521
커피gagago,경상북도 칠곡군 지천면 금호로 251,35.9539172067691,128.444990882717
마마베이크,경상북도 구미시 형곡동로1길 10,36.1034318547218,128.33510155559
길에서만나다로스팅하우스,경상북도 포항시 북구 법원로40번길 84,36.0788159169416,129.391386486851
스위피,경상북도 경주시 포석로1050번길 21,35.8346583836276,129.211870661671
던커피,경상북도 예천군 예천읍 중앙로 21,36.6572246651833,128.455122943479
타로카페퀸,경상북도 청도군 청도읍 고수산복길 7-10,35.6467687558093,128.738387728208
메가엠지씨커피,경상북도 포항시 북구 중앙상가2길 13-1,36.036801326049,129.363883111056
카페마리모,경상북도 포항시 북구 용당로91번길 2,36.0359384044491,129.361305047073
커피왕,경상북도 영천시 언하공단로 84,35.986357991906,128.954527153072
더벤티왜관역점,경상북도 칠곡군 왜관읍 중앙로8길 9-1,35.9923115295765,128.399345941648
길,경상북도 상주시 함창읍 함창중앙로 197,36.5711001065885,128.184676787054
명작갤러리카페,경상북도 포항시 남구 대이로25번길 12,36.0174065790399,129.341528328756
솔다방,경상북도 청도군 풍각면 송서9길 13-1,35.6402315948353,128.617055603371
다이룬,경상북도 경산시 백천서로 8,35.808231202361,128.735884873018
카페언덕,경상북도 구미시 고아읍 들성로11길 55-2,36.1663652006942,128.345984332515
카페이이구,경상북도 영천시 화남면 천문로 1605,36.0607263634269,128.891965633088
꽃담갤러리카페,경상북도 안동시 충효로 4416-3,36.5482431543349,128.737521129775
커피53윤커피고방,경상북도 포항시 북구 문화로9번길 8-1,36.0436657194361,129.36652054751
못앞에,경상북도 김천시 대학로 100,36.1362654917691,128.093685978416
르땅고뒤샤,경상북도 경주시 계림로 82-1,35.8415445842559,129.213613629101
미미커피,경상북도 의성군 단촌면 장터길 16-6,36.4225069129551,128.673056675003
아스만커피,경상북도 상주시 외서면 북상주로 539-25,36.4751383214088,128.171303241667
금커피,경상북도 포항시 북구 문화로 24,36.042641482823,129.367823386401
화란커피숍,경상북도 김천시 자산로 53,36.1193817068464,128.125892349706
카페소풍,경상북도 포항시 북구 법원로51번길 20-3,36.0797120328226,129.38326440058
카페비다,경상북도 영천시 백신애길 2,35.966945879044,128.929070796916
길다방,경상북도 경주시 서면 내서로 431-1,35.8932822408411,129.050594140068
모리커피황리단길점,경상북도 경주시 포석로 1087,35.8382225006455,129.209677938398
컴포즈커피효자,경상북도 포항시 남구 상도남로 11,36.0081674823371,129.34245879999
"볶다,굽다",경상북도 경주시 불국신택지2길 22,35.7844032772323,129.325445700902
카페티파니,경상북도 구미시 산호대로 218,36.103456952803,128.386624381859
배리,경상북도 경주시 배리2길 3,35.7919361143464,129.205745838371
끌리오,경상북도 경주시 양정로252번길 17-12,35.8560257940639,129.226267143548
착한커피,경상북도 포항시 북구 학전로111번길 33,36.0631217781107,129.372173772672
누에봉주르,경상북도 김천시 남면 농남로 1026,36.0693317592549,128.264605715708
카페라인빨래방,경상북도 포항시 남구 새천년대로434번길 21,36.0135705681646,129.346865570095
카페베르크,경상북도 안동시 퇴계로 416-1,36.5909545243189,128.74283344588
코티지,경상북도 청도군 청도읍 고수산복길 49,35.6437427078004,128.739453067483
하늘연달,경상북도 영천시 시장로 99,35.9639129334664,128.941230375191
스테이오오공,경상북도 경주시 사정로 56-1,35.836425008062,129.20917470907
포텐셜커피로스터스,경상북도 경주시 외동읍 입실로 16,35.7096663393854,129.326527778496
아아,경상북도 안동시 경동로 977-6,36.5534137622837,128.762256518052
빈틈,경상북도 구미시 인동38길 5-16,36.093065184552,128.433958285417
투썸플레이스경산,경상북도 경산시 백자로 55,35.8113461377591,128.753928050992
드롭탑철길숲점,경상북도 포항시 북구 양학로9번길 12-1,36.0239833719164,129.350559700984
와이엘디자인,경상북도 고령군 성산면 성산로 970,35.7510807222979,128.367873665175
아리수경주호텔ATWOSOMEPLACE,경상북도 경주시 영불로 207,35.7815446979756,129.324767789131
369커피,경상북도 김천시 자산로 164,36.1248514321986,128.118179978716
해르트,경상북도 경산시 하양읍 문화로4길 35,35.9124639840638,128.816055668915
아틀리에빈백천유스파점,경상북도 경산시 백천길 10,35.8066085869178,128.74178953523
하말,경상북도 경산시 와촌면 대한길 13,35.9665683101497,128.789193993473
팬도로시대구한의대점,경상북도 경산시 한의대로 1,35.7940357392351,128.777361802181
이인숙부동산,경상북도 경주시 현곡면 용담로 477-57,35.8813185531026,129.176400230135
모락별,경상북도 경주시 포석로1095번길 11-10,35.838169442968,129.208680957027
카페퍼즈,경상북도 경산시 남산면 상대로 695-11,35.7912437562921,128.799039349369
더소아즈커피,경상북도 안동시 송천1길 146-7,36.5452188029613,128.794465783936
공차구미,경상북도 구미시 봉곡로 100,36.1474719843726,128.310618706845
커피심플리시티봄,경상북도 포항시 남구 대이로46번길 11,36.0202122695071,129.342884961849
커피만보,경상북도 안동시 경동로 932-1,36.5556036590014,128.756603380448
빨라쪼구미차,경상북도 구미시 신시로10길 12,36.1147722953199,128.340737065025
제이제이커피,경상북도 포항시 남구 중흥로 82,36.0124432411738,129.350140938975
요거프레소북삼서희점,경상북도 칠곡군 북삼읍 인강1길 55,36.0660105434836,128.338073323688
텐퍼센트포항,경상북도 포항시 남구 연일읍 동문로 44,35.994078067115,129.35235642207
노워즈,경상북도 경주시 태종로 744,35.8392697175475,129.209505668971
피오레,경상북도 경주시 원화로 436,35.8591678586125,129.220403345011
객주카페여덟고을,경상북도 청송군 진보면 진안남2길 16-23,36.5271811489957,129.047176434308
스튜디오카페느릿,경상북도 경산시 장산로 103,35.8180611591049,128.736451426801
플로어플랜,경상북도 고령군 성산면 개경포로 1960,35.742022678953,128.390585242611
시즈널,경상북도 구미시 옥계신당로7길 16,36.1441700288866,128.423438576291
공차NC,경상북도 포항시 북구 중앙상가길 6,36.0359638625298,129.362237552496
보릿돌카페,경상북도 포항시 남구 구룡포읍 동해안로 4376-28,35.9518448378005,129.5478473376
카페모캄보,경상북도 울릉군 북면 울릉순환로 3136-2,37.5420325554061,130.874239327081
별다방미스리,경상북도 경산시 압량읍 압독2로2길 12,35.84149099414,128.761751565446
카페오봉리,경상북도 김천시 남면 오봉로 504,36.1208645260827,128.240661063368
모리커피,경상북도 경산시 대학로 299,35.8376791838383,128.754487050013
황남다락,경상북도 경주시 손효자길 7-6,35.8368822379939,129.210310628611
콘크카페,경상북도 경주시 양남면 동해안로 498-12,35.6860564653685,129.473441314529
스웨덴양과점,경상북도 경주시 황성로 61-19,35.8684367426919,129.215584836857
텐퍼센트,경상북도 안동시 광명로 175-1,36.5633368881418,128.701948639427
해가빛커피앤공방,경상북도 포항시 북구 삼흥로100번길 30,36.0705662718255,129.382338270343
카페서동리32,경상북도 경주시 양남면 동남로 370-8,35.6644053227736,129.416585226618
이디야구미금전워시클럽점,경상북도 구미시 산호대로 1192-1,36.133120310213,128.457721992566
가드니아,경상북도 포항시 북구 청하면 해안로2000번길 33-9,36.1807606940759,129.392231211515
카페뷰,경상북도 청도군 청도읍 한재로 303,35.5878751463194,128.738276971663
마인슈테른,경상북도 상주시 복룡냉림길 40,36.4200178617645,128.164970787081
고어라운드커피,경상북도 포항시 북구 양덕로30번길 31,36.0814536334978,129.405532985076
플로리안커피,경상북도 안동시 송하1길 86,36.5694063549999,128.693512386577
텐퍼센트상주상산점,경상북도 상주시 왕산로 391,36.4214943680572,128.159476172061
캔무드,경상북도 구미시 형곡로 15,36.1159800588937,128.33754312098
이디야경주외동공단점,경상북도 경주시 외동읍 내외로 10,35.7270713262549,129.320681863673
청솔로9,경상북도 구미시 옥계북로 84,36.1380921270286,128.426883749497
에이와이22,경상북도 안동시 옥동2길 43,36.5601046654614,128.701416693627
구릉,경상북도 경주시 북군3길 12-8,35.8527048453141,129.264929867549
커피합니다2,경상북도 안동시 민속촌길 334,36.5680034728871,128.770801452698
더리얼나인,경상북도 포항시 북구 죽파로 7,36.029887751667,129.357628273366
"너라서,예쁘다",경상북도 포항시 북구 장량로226번길 11,36.080589552663,129.405439888809
카페호,경상북도 구미시 선산읍 선주로 159,36.2446378047801,128.304226745739
달콤하다,경상북도 영천시 언하공단로 60,35.9865451255338,128.957057837493
블루샥경주용황점,경상북도 경주시 용황로7길 7,35.8836469393542,129.225662854086
쏠트3.5,경상북도 경산시 경산로40길 24,35.8260948375255,128.728579214324
르쁘띠,경상북도 안동시 감나무길 32,36.5689870709996,128.70963060014
티타임커피구미,경상북도 구미시 형곡로 49,36.1156653720837,128.3340538133
파라글로우,경상북도 경산시 진량읍 공단7로 3,35.8587070758102,128.82704126757
그대때문에늘봄날북삼점,경상북도 칠곡군 북삼읍 금오대로 208,36.063988150484,128.34561327386
명주정원,경상북도 상주시 함창읍 새잼이길 7,36.576787547834,128.165817638203
카페프린스챠밍,경상북도 포항시 북구 삼호로 175,36.0537778246467,129.37516352455
안나카페,경상북도 포항시 북구 흥해읍 신흥로861번길 6,36.1125901539599,129.337092204022
놀멘다방,경상북도 포항시 북구 송라면 보경로 33,36.228465012207,129.359006130596
베베르,경상북도 영천시 고경면 장재길 16-10,35.9998322925085,129.038063749794
티타임안동,경상북도 안동시 중앙로 48-1,36.5651759464679,128.731827956708
요거프레소경주서라벌대점,경상북도 경주시 충효녹지길 34,35.8416737534363,129.18714933404
이층공원,경상북도 포항시 북구 흥해읍 초곡지구로167번길 23-25,36.0902314379979,129.330550818708
어터하우스,경상북도 구미시 고아읍 문성로6길 2,36.1578222139009,128.348669751153
케이프라운지카페,경상북도 포항시 남구 호미곶면 구만길 224,36.0849836725695,129.556682042544
카페엘엘엘,경상북도 경산시 하양읍 도리길 3,35.9164955071725,128.8169834703
아이씨카페,경상북도 김천시 거문들1길 65-3,36.1386836346259,128.077321680315
트레비앙,경상북도 안동시 옹정골길 147-4,36.5517665982179,128.743374188426
달보드레,경상북도 영주시 대학로153번길 10,36.8100801863559,128.607664430653
리본테이블,경상북도 경산시 백양로34길 2-10,35.8104519669129,128.758522742607
이오니언,경상북도 상주시 중앙로 363,36.4179709470438,128.17825856083
경주에스밀다,경상북도 경주시 임해로 100-11,35.8406047658944,129.229815313277
투썸플레이스구미,경상북도 구미시 봉곡북로 69,36.1544362920931,128.311646395799
프레커피,경상북도 안동시 광명로 138,36.5604303773603,128.699665743788
킹스로드카페공방,경상북도 경주시 문무대왕면 호암길 12,35.827703495612,129.406057688568
커피,경상북도 경산시 경산로42길 4,35.8267568811834,128.72641602832
밀,경상북도 김천시 대항면 직지사길 130,36.1170591214976,128.008239490718
나봄,경상북도 영주시 영주로72번길 15,36.8211174099237,128.608099160964
투썸플레이스포항두호점,경상북도 포항시 북구 두호로 26,36.0602171394033,129.375553057823
구스토커피,경상북도 김천시 대항면 황악로 1488,36.1184278433596,128.019192717114
라온카페,경상북도 포항시 남구 송도로 58,36.0332585181958,129.377369807706
빽다방경산펜타힐즈점,경상북도 경산시 펜타힐즈2로 57,35.8287436422862,128.719782377383
소풍나레,경상북도 김천시 대항면 황악로 1482,36.1179681626431,128.019303690645
탐앤탐스포항상도점,경상북도 포항시 남구 상공로 61,36.0138676458006,129.357286907423
디에스엠알오카페담루프탑점,경상북도 포항시 남구 오천읍 원동로 199,35.9809516679139,129.401419925253
카페아이언,경상북도 구미시 선산읍 남문로4길 3,36.241182628262,128.301965925519
이디야커피경산대평임당점,경상북도 경산시 경안로65길 5-8,35.8352400765622,128.733544115157
마음충전상담까페,경상북도 경산시 성암로9길 16,35.8242713288915,128.721579151969
공간,경상북도 영천시 천문로 485,35.9778677661617,128.922279609287
카페카파이,경상북도 포항시 남구 희망대로 1173-1,36.0342140785464,129.380482166264
셀렉토커피경북도청점,경상북도 예천군 호명면 새움3로 52,36.5761490067012,128.492000371384
쉼표,경상북도 포항시 북구 중흥로 222,36.0230808204463,129.358654187276
오브더데이직지점,경상북도 김천시 대항면 황학동길 4-35,36.1149039945417,128.017670048952
커피나무,경상북도 칠곡군 북삼읍 금오대로8길 8,36.0692619403577,128.348322934106
봄봄,경상북도 고령군 대가야읍 중앙로 7,35.7300257675939,128.268840257534
빽다방김천구미역점,경상북도 김천시 혁신1로 50,36.1144340216949,128.181713406817
아베크,경상북도 경주시 석장남길 102-17,35.8588417933555,129.18728348531
파스쿠찌문성지점,경상북도 구미시 고아읍 들성로 183,36.1596384391949,128.340797716479
위드윅스,경상북도 구미시 산동읍 신당1로 50,36.1542872715,128.429683215417
코끼리카페,경상북도 봉화군 석포면 석포로1길 13-2,37.0453655519493,129.063143746418
해피아워,경상북도 경산시 성암로15길 12,35.8248242235838,128.724063224585
요안나스토리,경상북도 칠곡군 석적읍 강변대로 1580,36.0179290478127,128.404046027742
까페그해봄,경상북도 포항시 남구 새천년대로 453,36.0164406428415,129.345694140877
빽다방경산옥곡점,경상북도 경산시 경산로16길 2-6,35.8156309562289,128.73147142332
"바람난한끼돼지,고래맥주창고",경상북도 경산시 하양읍 대학로295길 8,35.9098235918092,128.822598412446
디에스엠알오카페담철길점,경상북도 포항시 남구 대잠길 12-1,36.0109604900283,129.338501745015
미실,경상북도 경주시 사정로57번길 19,35.8382363014655,129.20920219687
커피밀리,경상북도 포항시 남구 축항로 54,36.0293602290514,129.374661303284
복고다방진량점,경상북도 경산시 진량읍 초원길 53,35.8918836054695,128.836236284422
함월커피,경상북도 경주시 서면 내서로 320-3,35.900485285885,129.042115347461
카페빌리,경상북도 포항시 남구 철강로 362,35.9781723072117,129.379172812425
미술관COFFEE,경상북도 안동시 영가로 7,36.563836537594,128.732742579497
샵커피집,경상북도 포항시 남구 상공로 34,36.0116902345619,129.356173588661
레딧제과,경상북도 영주시 대학로164번길 11-19,36.8125833602996,128.608076489791
코지브릭,경상북도 경주시 진현로2길 54,35.7857424786052,129.327414704582
소담,경상북도 영천시 북안면 임포역길 44,35.9209472077479,129.011225731346
달콤커피포항죽도,경상북도 포항시 북구 죽도시장길 1,36.0350684836194,129.365684055754
피브밀카페,경상북도 울진군 죽변면 죽변중앙로 131,37.0583886519732,129.41869516306
더착한커피포항,경상북도 포항시 남구 오천읍 정몽주로 499,35.9632396213402,129.41394420261
아리아,경상북도 의성군 다인면 서릉길 44,36.4496366893353,128.353987069944
파랑길카페,경상북도 영덕군 축산면 축산항길 8-1,36.5074368586989,129.444820549934
봉화군청공무원노동조합,경상북도 봉화군 봉화읍 봉화로 1111,36.8932951002494,128.732244364147
카페여기서,경상북도 울진군 기성면 기성로 107-131,36.752456870651,129.463220981915
사과꽃필무렵,경상북도 문경시 문경읍 여우목로 69-8,36.7314957242346,128.115665722812
케렌시아,경상북도 칠곡군 석적읍 북중리11길 26,36.0783526828949,128.411915957889
욘가,경상북도 포항시 북구 불종로 13-43,36.0409492254976,129.362101490691
구미지역자활센터카페카리타스,경상북도 구미시 송정대로 55,36.1200270338073,128.343825786907
열두달봄,경상북도 포항시 북구 양덕남로 137,36.0795864543842,129.407209474346
하늬커피,경상북도 구미시 해평면 강동로 1622,36.1954121162442,128.393180479385
모모,경상북도 포항시 북구 법원로51번길 30,36.0795792649844,129.382273984659
컴포즈커피경북도청점,경상북도 예천군 호명면 새움3로 20,36.57626013785,128.489084739636
헐티재가는길,경상북도 청도군 각북면 헐티로 1375,35.7191423807832,128.556530743474
카페123,경상북도 구미시 구미중앙로 72,36.1288523412824,128.330432264854
모리커피포항,경상북도 포항시 남구 연일읍 유강길17번길 13-1,36.0042233677491,129.317779601314
카페리우,경상북도 경산시 진량읍 공단1로 28-1,35.8735937808223,128.822212669187
좋은사람,경상북도 구미시 형곡로 108,36.1116148076095,128.332159478265
맬봄,경상북도 경산시 계양로8길 63,35.8164192330975,128.754141999872
월든,경상북도 경산시 경안로21길 17-2,35.8169708250107,128.736408158991
카페일팔구사,경상북도 경주시 포석로1068번길 23,35.8362080102792,129.211927434265
호미호시,경상북도 경산시 원효로 275,35.8166836790776,128.766483212941
더벤티도량점,경상북도 구미시 도봉로 76-61,36.139724766954,128.3160217184
카페JOHN316,경상북도 김천시 시청로 237,36.1491775382542,128.118060878829
에이엘스토리,경상북도 포항시 남구 상공로92번길 13-7,36.0159582823231,129.361283041138
조코,경상북도 안동시 도산면 선성중앙길 77,36.6982680557747,128.81464869937
플라스틱카페,경상북도 안동시 대안로 172,36.5639883370617,128.731503944523
히피상점,경상북도 경주시 봉황로 111,35.8494864140388,129.20988221018
텐퍼센트,경상북도 포항시 남구 상공로 101,36.0170368856375,129.359948198644
아이갓에브리씽울진군청점,경상북도 울진군 울진읍 울진중앙로 121,36.9930686210118,129.400518143437
들꽃,경상북도 칠곡군 기산면 행정1길 217,35.9722798352894,128.366879113418
감성커피경주금장점,경상북도 경주시 현곡면 안현로 43-9,35.8711413803498,129.202969474295
미야커피,경상북도 경산시 하양읍 대경로105길 22-8,35.9019187195287,128.801335621872
할리스커피경산중방점,경상북도 경산시 경안로 205,35.8258934661717,128.73647950498
카페트리팔렛,경상북도 성주군 월항면 주산로 454,35.9506572104886,128.322971169096
달리는커피예천경북도청점,경상북도 예천군 호명면 새움3로 14,36.5759382721072,128.488456984987
메리툴린카투,경상북도 포항시 북구 해안로 199-28,36.0647742267896,129.384434738414
여천카페,경상북도 포항시 북구 중앙로308번길 12-5,36.039865350841,129.367853044788
카페리아,경상북도 경산시 성암로21길 4,35.8251144640436,128.728238235458
우주라이크커피장량점,경상북도 포항시 북구 장량중앙로 50,36.0900216173529,129.387198057617
시그널라이트,경상북도 경산시 원효로22길 22,35.821382509787,128.748854758728
알리바바죽도가구,경상북도 포항시 북구 칠성로 51,36.0369496047916,129.367480827618
카페보스,경상북도 경산시 압량읍 대학로75길 21,35.842858577938,128.759285018387
커피한잔할까요,경상북도 성주군 선남면 성주로 4236,35.8820027985436,128.375798932947
인프루트,경상북도 칠곡군 왜관읍 평장길 42,35.9843037057589,128.403286789223
득성휴게점,경상북도 고령군 성산면 성산로 1023,35.751838083968,128.373649093243
카페보나,경상북도 경주시 건천읍 대곡용명길 20,35.8464428844133,129.108701982998
블리당,경상북도 김천시 시청2길 5,36.1388617140028,128.113923065727
감성커피죽도점,경상북도 포항시 북구 중흥로 119,36.0157854697994,129.351861929291
저울커피,경상북도 구미시 금오산로18길 8-1,36.1254006402775,128.330340032501
커피길,경상북도 경주시 양정로 311,35.8606444853578,129.224090723124
달콤한숲,경상북도 청도군 청도읍 중앙로 84-52,35.6453792444254,128.757489415577
다가감,경상북도 구미시 경은로 30,36.115181039895,128.336428892974
33어울림,경상북도 구미시 고아읍 선산대로 468-8,36.1717139338298,128.353833544039
더벤티구미,경상북도 구미시 문화로 33,36.1286327680774,128.334853118223
모티,경상북도 김천시 해오름2로 7,36.1191571037147,128.175481204504
카페서이,경상북도 상주시 문무1길 23,36.4169438253538,128.151962280435
커핑,경상북도 포항시 남구 대송면 철강산단로 2,35.9544534302295,129.364826995431
너의예쁨,경상북도 경주시 봉황로 90,35.8475253687305,129.210405916771
페이브잇,경상북도 경산시 백자로 58,35.8110905897223,128.754434641099
포레스타,경상북도 구미시 새마을로 112,36.1068421732499,128.349677199579
비비카페,경상북도 경주시 산내면 문복로 211,35.6548496841475,129.06413804095
삼십오밀리미터,경상북도 경주시 양남면 후동길 11-13,35.6813825399537,129.462794877769
카페바로크,경상북도 구미시 산동읍 신당1로1길 17-7,36.1553476118217,128.4330675685
수&하늘보리피자,경상북도 고령군 대가야읍 주산길 14-1,35.7280249488186,128.264688245012
흥륜뜰,경상북도 경주시 포석로 986,35.8290185053343,129.209870251619
뚜레쥬르포항,경상북도 포항시 남구 상도남로 11,36.0081674823371,129.34245879999
"커피와야,수채화공인중개사사무소",경상북도 구미시 상사동로 58,36.0897902393625,128.358618521729
아하브커피,경상북도 경주시 금성로 345,35.8486451423023,129.20660375747
헤븐,경상북도 경주시 임해로129번길 48,35.8452079423343,129.224750095942
커피별아저씨,경상북도 문경시 점촌5길 12,36.5968073837054,128.198831932199
카페옥야동,경상북도 안동시 대안로 98-7,36.5650988155846,128.723794595584
멕시카나장성,경상북도 포항시 북구 법원로39번길 32,36.0785981526487,129.382167995308
정카페,경상북도 영천시 완산중앙2길 23,35.9630149638934,128.936197610366
오렌지커피숍,경상북도 포항시 북구 삼호로 23,36.0431147136375,129.367420982074
알리스타케냐커피경주,경상북도 경주시 외동읍 영불로 116-3,35.7756415466281,129.318188817084
요거프레소봉곡테마공원점,경상북도 구미시 봉곡남로17길 18,36.1514208494918,128.313612615892
이디야커피완산점,경상북도 영천시 시장로 128,35.9635629824755,128.944474538847
미스옐로우씨,경상북도 구미시 상사동로16길 2,36.09619705193,128.359091843842
커피스쿨,경상북도 영주시 목민로 54,36.8092557256816,128.618999807874
자드락커피,경상북도 김천시 문지왈길 3,36.1237047898408,128.089249534514
커피명가영주점,경상북도 영주시 영주로72번길 22,36.8206597756785,128.607714432071
빽다방영주가흥동점,경상북도 영주시 대동로34번길 2,36.8148562703958,128.605931279416
쉼마루,경상북도 김천시 새터1길 48-1,36.0987898397238,128.114042891448
커피네로,경상북도 문경시 당교2길 16,36.5835918849525,128.184192492252
제이메종,경상북도 포항시 남구 오천읍 원동로 73,35.9695849561682,129.402372002963
커피153,경상북도 포항시 남구 중흥로152번길 26-3,36.0163271931584,129.356563645127
프라임,경상북도 구미시 산호대로30길 8-9,36.1358414320177,128.418505002846
어바웃문,경상북도 영주시 대학로 91,36.8071512334022,128.614701757731
카페밤밤,경상북도 구미시 산호대로32길 12,36.135325614071,128.421668868552
컴포즈커피포항,경상북도 포항시 남구 연일읍 유강길 17,36.0051877564133,129.318594258657
덕수동커피집,경상북도 포항시 북구 중앙로 338,36.0427985243802,129.365906323431
라이파드커피,경상북도 경산시 남매공원로2길 26,35.8316050548363,128.744246811574
쥬,경상북도 경주시 현곡면 가삼골1길 19-1,35.8737562520541,129.191093826033
카페일육,경상북도 포항시 북구 천마로89번길 12-6,36.0850662839591,129.395615804737
피카커피인더플레이스,경상북도 경산시 경산로 215,35.8271925012739,128.724427830554
도원휴게실,경상북도 영천시 시장4길 17,35.9646136538649,128.936914934395
티쏠,경상북도 포항시 남구 구룡포읍 호미로221번길 2,35.9900749962682,129.554781755276
육오도씨,경상북도 경주시 천북면 새터흥림길 55-48,35.9145706460624,129.29258163779
배리삼릉공원,경상북도 경주시 쪽샘길 8-1,35.8364156930346,129.218128879679
설탕커피,경상북도 안동시 경북대로 402,36.5650842827285,128.700579124586
이디야커피,경상북도 청도군 청도읍 고수서2길 1,35.6444882584247,128.74133713253
"카페아바드,아바드커피",경상북도 청송군 진보면 진안동윗길 32,36.5309637356465,129.04847810263
요거프레소구미,경상북도 구미시 금오시장로1길 12,36.1259249254286,128.339463212012
요거프레스경주,경상북도 경주시 백률로57번길 33,35.859565574621,129.225602011518
더리터경산옥곡점,경상북도 경산시 경산로15길 1-5,35.8156695649295,128.731051269738
정항우케익카페,경상북도 경산시 백천동로 57-1,35.8033805953589,128.736127803582
커피공장,경상북도 영덕군 강구면 금진길 11,36.3658838400399,129.393817408956
22번가,경상북도 구미시 금오산로22길 23,36.1264387691932,128.329744459395
일리베로나102,경상북도 경주시 황성로 61-25,35.8688639721794,129.21522595717
버터씨,경상북도 포항시 북구 법원로115번길 3,36.0852594404941,129.385182469182
그리다,경상북도 영주시 대동로 71,36.8150046759432,128.610393330521
영천시니어클럽카페모람,경상북도 영천시 무궁화길 20,35.9728226350886,128.93598077206
카페빈트리,경상북도 경산시 하양읍 대경로159길 30,35.9170146796938,128.824102180764
모리커피도구점,경상북도 포항시 남구 동해면 연오로7번길 1,35.9880915862512,129.44229915247
이유엘,경상북도 영주시 대학로163번길 26-12,36.8114721931334,128.605075238
콩블리,경상북도 경주시 외외길 176-27,35.8175437610143,129.173654880128
온더비전,경상북도 경산시 성암로21길 39,35.828009581204,128.726438511455
1리터리얼커피상모점,경상북도 구미시 상사서로3길 7,36.0868545318483,128.35474096336
알트,경상북도 포항시 북구 아치로 10,36.0518169593782,129.360612892379
귀부인의하루,경상북도 안동시 풍천면 수호로 88-4,36.5777660345028,128.501888373434
메가커피,경상북도 포항시 북구 중흥로 131,36.0164520126179,129.352694218648
오유에프,경상북도 구미시 여헌로 63-1,36.1072460585079,128.425439501239
카페씨에로,경상북도 경주시 알천북로 345,35.8440018428935,129.235158930484
커피홀릭,경상북도 청송군 청송읍 중앙로 245,36.4338480879226,129.055903037487
텐퍼센트커피,경상북도 구미시 옥계북로 50,36.1380161099246,128.422905502978
커피베이,경상북도 영덕군 영덕읍 강변길 278,36.4166447054025,129.365176599916
이디야커피구미황상점,경상북도 구미시 검성로 42-3,36.1145209327046,128.425034416533
빽다방경산하양,경상북도 경산시 하양읍 하양로 76,35.9115849613946,128.816755715043
예미정정상,경상북도 안동시 옹정골길 111,36.5521022120705,128.741579021288
인아웃카페,경상북도 구미시 인동26길 47,36.0931311442961,128.425618833039
모이모이카페,경상북도 상주시 삼백로 160-1,36.4185719808807,128.161209781456
카페유,경상북도 구미시 인동28길 49-9,36.092101160449,128.426323987405
셀렉토커피하망동점,경상북도 영주시 서원로 221-22,36.8209914141523,128.635638946553
테다,경상북도 문경시 문경읍 새재로 880,36.7571564077606,128.078318639408
니트나무,경상북도 안동시 태화중앙로 23-1,36.5589071891418,128.70732654087
더리터울진점,경상북도 울진군 울진읍 연호로 23,36.9937784189847,129.403743988758
서원,경상북도 안동시 도산면 퇴계로 2300,36.7201863614438,128.830081960039
봉커피,경상북도 안동시 서후면 봉정사길 214,36.6486665725376,128.663600462095
엘로이,경상북도 고령군 다산면 상곡길 37,35.8240008437056,128.449632283301
메가샾크로플,경상북도 칠곡군 북삼읍 금오대로2길 57,36.068036711517,128.351226113092
꽃마실카페,경상북도 구미시 인동남길 6,36.1043262373002,128.420225904725
런던벨,경상북도 구미시 봉곡남로 20-3,36.1510458773441,128.305254032718
루츠커피,경상북도 안동시 일직면 풍일로 1989,36.4664277394866,128.613842129304
카페문,경상북도 구미시 봉곡남로5길 46,36.1539309910734,128.308388123748
나우커피칠곡북삼점,경상북도 칠곡군 북삼읍 안산2길 23-7,36.0658126229361,128.334731032712
미드레인지,경상북도 안동시 태사길 53-14,36.5667573291875,128.734066139324
제이커피첨성대점,경상북도 경주시 첨성로 167,35.8358553375543,129.219171800568
하루커피앤도넛,경상북도 예천군 호명면 새움3로 36,36.5765341846382,128.490382622169
사느레정원,경상북도 영주시 문수면 문수로1363번길 30,36.7711916363976,128.630657266694
이디야김천,경상북도 김천시 부곡맛고을2길 27,36.1247218175582,128.09116151729
알퐁달퐁드로잉카페,경상북도 김천시 교동택지5길 34,36.1428512887224,128.097049644243
린도카페,경상북도 포항시 북구 흥해읍 해안로1732번길 44,36.1545959986451,129.398636137967
나마스떼,경상북도 청도군 운문면 운문로 1577,35.6860234147284,128.960503792745
덕신카페,경상북도 울진군 매화면 동해대로 2831,36.8803977816276,129.416259078953
학산테라로사커피포스텍지점,경상북도 포항시 남구 청암로 87,36.012787690565,129.323279996114
오가다,경상북도 김천시 농소면 월곡외지길 8,36.1112865908997,128.164300574789
베러먼데이포항상도점,경상북도 포항시 남구 중섬로 97,36.0119190257792,129.355068240624
홍당커피,경상북도 경산시 진량읍 금호강변로 830-3,35.9064473612056,128.822064934457
에프엘에프앤비Adenby황남,경상북도 경주시 사정로 57,35.8367851304397,129.209213379297
40일기,경상북도 경산시 중앙로16길 18-1,35.8216157560317,128.735897716376
우즈베이커리포레스트,경상북도 경산시 삼성현로 548,35.8045984108488,128.759153081447
파머스1763,경상북도 구미시 고아읍 문성로5길 14,36.1542145778526,128.34952064025
더리터두,경상북도 포항시 북구 해안로 187,36.0642778438236,129.383715641826
641포레스트,경상북도 김천시 부항면 부항댐길 641,35.9749491040062,127.987633414664
헤븐카페공원점,경상북도 경산시 하양읍 가마실길 50,35.9110801490541,128.802059506704
커피사관학교,경상북도 영천시 신녕면 대학길 105,36.0642223374501,128.761417391359
아이씨씨,경상북도 경산시 청운로 13,35.8370690399783,128.752610621185
빈벨,경상북도 경산시 백양로 117,35.8135137497586,128.754656743877
소망의뜨락,경상북도 성주군 대가면 참별로 2288,35.9101694679219,128.23363970288
카페모임,경상북도 청송군 진보면 진보로 118-4,36.5283217983345,129.044534212036
갤러리안나,경상북도 칠곡군 가산면 학산3길 86,36.0526828217957,128.510532172263
피노,경상북도 청도군 화양읍 연지안길 39,35.6740000078474,128.691039465125
비움베이크샵,경상북도 포항시 북구 법원로63번길 20-13,36.0812086595808,129.383212901422
컴포즈커피상원점,경상북도 포항시 북구 중앙로 273,36.0374369556685,129.365048081318
이디야커피영주역점,경상북도 영주시 대학로 3,36.8102573769247,128.623916775814
청년회관,경상북도 의성군 의성읍 중앙길 71-2,36.3507685452394,128.696581824734
건빵건어물카페,경상북도 포항시 북구 장량주택로4번길 21-6,36.0875053946954,129.392017061829
로로리,경상북도 구미시 야은로 213-21,36.1445134519259,128.308017893618
커피에반하다포항문덕점,경상북도 포항시 남구 오천읍 남원로 86-54,35.9728082395887,129.401098562961
투썸플레이스포항,경상북도 포항시 남구 오천읍 원동로 34,35.9660241865544,129.403218094984
더벤티우현점,경상북도 포항시 북구 우창동로 40,36.0554302415227,129.363050228435
빽다방포항영일대점,경상북도 포항시 북구 삼호로 237,36.0595725575721,129.378316671094
딩딩이네,경상북도 영주시 부석면 소백로 3706,36.9757153130447,128.65501773788
카페딜쿠샤,경상북도 구미시 상사동로 146,36.0975938444128,128.359164832107
트레비앙,경상북도 포항시 남구 연일읍 연지로 99,36.0308891350673,129.310556726296
구커피,경상북도 포항시 남구 효자로118번길 15,36.0092414273988,129.338295204675
배달의카페,경상북도 구미시 봉곡로 121,36.1495189024675,128.310237824678
별사주카페,경상북도 김천시 평화길 46,36.1245083538076,128.109303010959
요거트월드,경상북도 경산시 하양읍 대학로305길 51-2,35.9108451162486,128.816869981927
포클랭,경상북도 포항시 남구 연일읍 중단길4번길 45-8,35.9897604067163,129.329848479456
컴포즈커피구미,경상북도 구미시 고아읍 문성로 31,36.1534940339167,128.346250078502
킴스마운틴커피클래스,경상북도 청송군 주왕산면 당마을길 7,36.3907884856908,129.139243252623
반하다카페,경상북도 영주시 번영로 101-1,36.8212641345534,128.628411304499
크로플팜,경상북도 구미시 봉곡로18길 33-8,36.1517789722399,128.314525328486
포레스토리,경상북도 청도군 화양읍 남성현로 582,35.7045312982235,128.718277428067
여마그커피,경상북도 구미시 형곡로 144,36.1080995771672,128.332222428417
충효커피,경상북도 경주시 충효녹지길 54,35.8423688423193,129.18521150699
카페뷰,경상북도 경주시 보불로 237-5,35.8037039289527,129.310243948209
메종드마마카페,경상북도 포항시 북구 흥해읍 포항역로 1,36.0716202480816,129.341937800489
원카페,경상북도 청도군 풍각면 송서11길 2,35.640932052285,128.615802207968
카페솔밭길,경상북도 김천시 아포읍 금계길 163-25,36.1505853389834,128.271957419949
빽다방영천완산점,경상북도 영천시 시장로 53,35.9636108817554,128.936060520947
커피왕백천점,경상북도 경산시 경청로219길 4,35.8033061117595,128.737985914129
카페53,경상북도 성주군 성주읍 시장길 53,35.9137994772782,128.284828396921
카페더함,경상북도 울릉군 북면 죽암1길 4,37.540518660085,130.891590946613
마칸로스터리,경상북도 경산시 성암로9길 27,35.8250325148648,128.720899868909
더벤티구미,경상북도 구미시 수출대로3길 118,36.1210418149531,128.372202355362
콩씨까페,경상북도 경주시 강동면 인좌안길 32-61,35.9887431313274,129.263028198346
다울,경상북도 영주시 신재로12번길 68-1,36.8342747238547,128.611589027315
투썸플레이스,경상북도 구미시 인동가산로 24,36.1064676304254,128.418704566864
두유라이크커피,경상북도 포항시 남구 동해면 호미로3192번길 92,35.9963698359786,129.458286903224
카페오찌죽도점,경상북도 포항시 북구 양학천로 131,36.025221605294,129.360610299726
플라워카페가인,경상북도 문경시 중앙로 27,36.5890655354851,128.193548341946
달카페,경상북도 경주시 양남면 신대로 93,35.6637081540161,129.406091974119
나우커피인의점,경상북도 구미시 수출대로31길 14,36.1119317872073,128.425720244611
모리커피,경상북도 포항시 북구 법원로 170,36.0898400064935,129.388094255597
에이치테이블,경상북도 고령군 다산면 상곡길 22-19,35.8232560418459,128.451155359812
커피팀버연화지점,경상북도 김천시 연화지1길 20,36.1382485159139,128.093466107767
20도씨,경상북도 구미시 봉곡북로9길 2,36.1549066038721,128.307525075197
카페동행,경상북도 안동시 강남5길 113-14,36.5488492195142,128.729831027373
코스모스,경상북도 포항시 북구 중앙상가3길 16-1,36.0370589720184,129.364209343482
그레잇커피,경상북도 성주군 성주읍 성주순환로1길 15,35.9215097059281,128.279337719341
고르디아스,경상북도 칠곡군 동명면 한티로 542,36.0044129035276,128.59389103144
케냐,경상북도 포항시 북구 흥해읍 영일만항로 106,36.111440509453,129.429624194138
문화광장컬쳐스퀘어,경상북도 안동시 동흥2길 5,36.5639783234717,128.734598435092
커피와아띠,경상북도 경주시 계림로 12,35.8359814380915,129.21562080386
천씨씨커피,경상북도 경주시 원지길12번길 32-6,35.8652284029725,129.219123286688
서라애,경상북도 경주시 엑스포로 80,35.8345764593531,129.28987714387
프린세스카페,경상북도 울진군 울진읍 울진중앙로 158,36.9955785352707,129.401631398167
카페치치,경상북도 포항시 남구 동해면 연오로 91,35.9819842020628,129.445048788448
온더바운더리,경상북도 포항시 북구 해안로 185,36.0641099761123,129.383424103021
이디야포항,경상북도 포항시 남구 오천읍 원동로 20,35.964896316293,129.403331169451
로뎀나무,경상북도 포항시 남구 축항로 91,36.0301736944952,129.378381236648
웜브리즈,경상북도 구미시 박정희로 221,36.098628351914,128.35377214508
예다방,경상북도 청도군 풍각면 봉기로 141,35.6407698198153,128.614034257845
보노보노1,경상북도 문경시 불정강변길 192,36.6558565537197,128.141178023019
단풍,경상북도 경산시 경청로216길 6,35.8006836120178,128.737928467113
오푸스11카페,경상북도 경주시 천북면 천강로 166-29,35.9037526558277,129.280231352098
카페,경상북도 안동시 풍천면 검무로 4-8,36.5759810191695,128.49339601354
마고포레스트,경상북도 경산시 경안로73길 20,35.8400522883363,128.730721446565
스컹크웍스,경상북도 경주시 포석로 1058-3,35.8355886068996,129.209892522095
공차경북상주점,경상북도 상주시 상산로 276,36.4153928114211,128.159530602828
리지커피,경상북도 구미시 경은로 100,36.114483394397,128.337725552198
평산,경상북도 경산시 삼성현로 587,35.8040042031093,128.7633186873
지풍화,경상북도 구미시 형곡로19길 4,36.1107484025555,128.332577914035
강군커피오리지널스,경상북도 포항시 북구 장량로242번길 17,36.0804824030848,129.407658427672
카페더치즈케익,경상북도 구미시 산동읍 신당1로4길 3,36.154376441133,128.429950427681
카페고동,경상북도 문경시 호계면 태봉1길 13,36.6476529701415,128.150580076186
홍스커피,경상북도 구미시 경은로 24,36.1149543453493,128.336916680542
까르페디엠,경상북도 포항시 남구 오천읍 오어로154번길 19-10,35.9278670876239,129.383683894784
보라카페,경상북도 구미시 3공단1로 277,36.1069028151228,128.402168712191
모카,경상북도 경주시 감포읍 사무골길 28-9,35.8048787522529,129.500393282618
페트리코씨오,경상북도 구미시 원남로 106,36.1273891929489,128.331537113618
일우사주카페,경상북도 구미시 상사동로 178,36.1004418049634,128.359211110549
세븐드로잉,경상북도 경주시 충효녹지길 108-1,35.8442728257792,129.179483693367
"준영빌딩,VICOLO",경상북도 포항시 남구 대이로189번길 15,36.0312660528508,129.336825860767
마타리,경상북도 상주시 사벌국면 경천로 683-47,36.4592938200696,128.230556688124
어느날,경상북도 영천시 중앙동3길 76,35.9741806423027,128.930563733291
핸즈커피효자,경상북도 포항시 남구 효성로64번길 16,36.004666752491,129.340391855181
디저트39,경상북도 문경시 여중1길 21,36.5977507561101,128.189557523074
세런디피티,경상북도 경주시 사정로57번길 26,35.8386417034742,129.209219418187
남울진농협로컬푸드판매장3층PATTERNcoffee,경상북도 울진군 후포면 울진대게로 219,36.6798950244264,129.462024322277
소리지571,경상북도 경주시 천북면 천북로 571,35.9030649628848,129.28470668612
카페강노을,경상북도 안동시 풍산읍 풍산태사로 1796,36.5585688403428,128.634521715527
패밀리어카페,경상북도 칠곡군 왜관읍 봉계로 172-7,35.9914932976443,128.442462412987
로얄가든,경상북도 김천시 감문면 감문로 986,36.210648231418,128.174773262368
카페,경상북도 경산시 펜타힐즈2로 65,35.8295357675585,128.719955549157
이디아커피주왕산국립공원점,경상북도 청송군 주왕산면 공원길 162,36.3919546622829,129.142637728954
워크샵,경상북도 포항시 남구 오천읍 냉천로 294,35.968676929656,129.409872620263
목련,경상북도 경주시 배리1길 26-7,35.791807994813,129.207735096594
블랑도도,경상북도 포항시 북구 흥해읍 해안로1774번길 25,36.1633831921402,129.39860330087
약속다방,경상북도 경주시 건천읍 내서로 1150-1,35.8468058918781,129.105496751037
꽃풍경,경상북도 포항시 남구 오천읍 구정길18번길 16-1,35.9791635642154,129.410192190503
카페라밀2,경상북도 문경시 영신로 101,36.592904128914,128.209897535109
메가엠지씨커피경주,경상북도 경주시 황성로 15,35.8648514562242,129.213625641742
아마스빈경산,경상북도 경산시 하양읍 하양로 76,35.9115849613946,128.816755715043
나무커피,경상북도 영주시 풍기읍 기주로 101,36.8702683790311,128.52470245503
엔젤에이치제이,경상북도 김천시 혁신8로 77,36.1288343052491,128.189123666165
카페노이,경상북도 포항시 남구 송림로 83,36.0371394919223,129.374519095601
슈에뜨,경상북도 포항시 북구 문화로13번길 1,36.0431960331289,129.366612303929
알콩달콤,경상북도 경주시 금성로395번길 22,35.8530995204001,129.204601026185
청우다방,경상북도 경주시 황성로69번길 9,35.8684963919292,129.216814831965
천씨씨커피구평점,경상북도 구미시 인동36길 5,36.0940154218377,128.43288631742
까떼커피구미,경상북도 구미시 송정대로 60,36.117652281545,128.34533728959
오프루티커피,경상북도 봉화군 봉화읍 신시장1길 12,36.8898993063068,128.7363629988
카페앓이,경상북도 문경시 중앙로 87,36.5935384184587,128.197337098687
파인포레스트,경상북도 칠곡군 왜관읍 중앙로 174-1,35.990562016285,128.399636569824
타카그룹,경상북도 구미시 구미대로22길 11,36.1137982787564,128.365414582439
커피공방,경상북도 경주시 초당길23번길 18-1,35.8464156410047,129.232683530523
발루토수퍼,경상북도 칠곡군 왜관읍 군청1길 97,35.9962633762669,128.400818829634
솔,경상북도 포항시 북구 청하면 청하로175번길 38,36.1951677398777,129.334770269428
북까페쉼,경상북도 경주시 양정로202번길 8-4,35.8507050863899,129.224812488723
엠앤디,경상북도 경산시 남매공원로2길 26,35.8316050548363,128.744246811574
금휴계실,경상북도 경산시 하양읍 금송로 12,35.9145756776475,128.818315451486
아일랜드카페,경상북도 의성군 안계면 용기5길 17,36.3867061893298,128.432273733987
빽다방경주보문점,경상북도 경주시 보문로 549,35.8357470709124,129.284926480833
그리오어,경상북도 영천시 시장로 96,35.9630243948894,128.940754204904
어코너,경상북도 포항시 남구 효자동길2번길 13,36.0083334483316,129.331613444138
카페솔레,경상북도 봉화군 법전면 녹동1길 2,36.9166432152007,128.957868917061
로카커피,경상북도 청도군 각북면 낙산1길 51,35.6904969729479,128.572032032969
복카페,경상북도 경산시 자인면 자인로 206,35.8168727141313,128.822435268448
봄봄포항서문점,경상북도 포항시 남구 오천읍 충무로 5,35.9764566434574,129.410465572883
카운츠커피,경상북도 경주시 충효중앙길 11,35.8416250500975,129.189340295525
그라노데,경상북도 경산시 대학로 299,35.8376791838383,128.754487050013
청솔로9,경상북도 포항시 북구 천마로72번길 33,36.0836614452541,129.399388092406
코너커피,경상북도 경산시 청운로 31,35.8382307610962,128.754204475844
커피루나,경상북도 울진군 울진읍 울진북로 876,37.0191535562628,129.411301507408
파크,경상북도 경주시 석장길 47-4,35.8607761784978,129.191264962264
레이어바웃,경상북도 안동시 전거리7길 89,36.5603310240893,128.747232109673
카페마운틴,경상북도 경주시 충효중앙길 60,35.8434911773432,129.184730082445
더벤티김천산업단지점,경상북도 김천시 어모면 산업단지1로 2,36.1583263888661,128.117329939512
팜테이블영일대점,경상북도 포항시 북구 해안로 211,36.0648676302557,129.386489887035
커피데이,경상북도 경주시 안강읍 구부랑길 73,36.0050195903959,129.196226258416
라파힐링카페,경상북도 경산시 원효로26길 19-3,35.820868553034,128.750332869395
더벤티,경상북도 영천시 시장로 41,35.9635397104235,128.934784743954
란사로테,경상북도 경산시 성암로13길 14,35.8243791835875,128.723129537283
케이크타임,경상북도 포항시 북구 중흥로225번길 3,36.023717342578,129.358154777211
샌디레이크영일대,경상북도 포항시 북구 삼호로 324-10,36.0649301322822,129.384981373891
카페정원,경상북도 상주시 신서문1길 148,36.4075608396426,128.152691030591
봄봄커피,경상북도 경주시 양정로 238,35.853872465092,129.22442944474
모던90,경상북도 경산시 옥산로 90,35.8233665043967,128.725156692327
투게더,경상북도 경주시 초당길15번길 21-10,35.8478608111861,129.231499273476
커피베리,경상북도 영주시 대학로201번길 8-31,36.8138845769955,128.605621002982
담꼬,경상북도 구미시 고아읍 문장로27길 14,36.1525088692699,128.328019855358
블랙앤화이트,경상북도 포항시 북구 흥해읍 흥해로 96,36.1132394588281,129.347510408643
까페바그다드,경상북도 문경시 매봉3길 23,36.5865385942963,128.184389472825
플랩,경상북도 경주시 건천읍 작원1길 79,35.8525609130813,129.103993518614
야긴꽃이야기,경상북도 포항시 북구 신광면 우각길 81-8,36.1047890027824,129.262850965386
레쉬커피로스터스,경상북도 상주시 동수4길 10,36.4229645068383,128.1517175187
커피테이크아웃,경상북도 포항시 북구 기계면 기계로 51-1,36.0697096590142,129.210759349687
커피가게,경상북도 문경시 당교6길 8,36.5836308711314,128.182281682211
빈카,경상북도 경주시 북군길 98,35.8588940023943,129.262603551659
베리트로스팅하우스,경상북도 경산시 펜타힐즈2로 37,35.827479271866,128.718697399538
베스트웨스턴cafe411,경상북도 경주시 감포읍 동해안로 1819-21,35.7710871422884,129.492724752742
좋았더라,경상북도 김천시 어모면 어모로 33,36.1604358678038,128.116866272594
커피엔,경상북도 예천군 예천읍 봉덕로 2,36.6486876176827,128.44386616084
오하,경상북도 김천시 새터3길 76-15,36.1017175771843,128.115601996315
포항역카페베네,경상북도 포항시 북구 흥해읍 포항역로 1,36.0716202480816,129.341937800489
1004-11카페,경상북도 칠곡군 약목면 칠곡대로 1004-11,36.0119464592996,128.387009063749
러브커피,경상북도 포항시 남구 상공로18번길 34,36.0107785351465,129.359485724253
컴포즈커피,경상북도 포항시 북구 대곡로 35,36.066178336266,129.373625490262
메가엠지씨커피영천,경상북도 영천시 충효로 75-2,35.9735310455109,128.937596866717
카페봄봄,경상북도 경산시 성암로 26,35.8223297581321,128.720698359809
크로플각,경상북도 포항시 북구 두호로 19-15,36.0592552775468,129.376124577614
팀버공단점,경상북도 구미시 1공단로7길 91,36.1102461998488,128.377360777366
금다방,경상북도 포항시 북구 기계면 기계로 74-2,36.0702651702226,129.208403337346
에프엘에프앤비,경상북도 경주시 보문로 404,35.8455232931369,129.283479083685
모노,경상북도 김천시 용전1로 9,36.1190365919758,128.18372357165
두낫디스터브반곡지,경상북도 경산시 남산면 반지길 190,35.7806292367614,128.805337484394
학사청년와이스트리트협동조합,경상북도 영주시 대학로62번길 22,36.8090061553736,128.616733911244
쿠요커피,경상북도 예천군 호명면 새움3로 14,36.5759382721072,128.488456984987
수다박스,경상북도 칠곡군 북삼읍 북삼로 233,36.0614578596481,128.335256514324
파루시아,경상북도 포항시 남구 호미곶면 호미곶길 89,36.0762138042506,129.569209142529
그라운드커피,경상북도 포항시 남구 희망대로 810,36.0084145259155,129.362905890181
읍천리382인동진평점,경상북도 구미시 인동남길 78,36.0992890029822,128.425052324427
구스켓인더크로플,경상북도 경산시 성암로7길 6,35.8230558727671,128.721357877896
식목일_포항,경상북도 포항시 북구 청하면 해안로 2353,36.2022327960971,129.368326516392
하삼동펜타힐즈점,경상북도 경산시 펜타힐즈2로 37,35.827479271866,128.718697399538
단디,경상북도 포항시 남구 오천읍 원동로 105-1,35.9727299409226,129.401629360883
강릉마약닭강정,경상북도 경주시 도지3길 39-13,35.8021079075939,129.269150005931
오미뇽,경상북도 경주시 영불로 261,35.7850584345734,129.328962943381
다롬카페,경상북도 포항시 북구 신덕로 289,36.0885350930082,129.384818015832
아리차,경상북도 김천시 아포대로 26,36.1172631798697,128.156848161107
이삭,경상북도 성주군 금수면 성주로 1895-1,35.9186760206501,128.176788069827
카페리,경상북도 안동시 충효로 4423,36.5485365652279,128.736708539318
카페티타,경상북도 포항시 남구 효자동길10번길 25,36.009010380552,129.332334736496
드롭탑커피한,경상북도 포항시 북구 흥해읍 한동로 558,36.1023173223365,129.389268792128
라셈블리,경상북도 구미시 원남로8길 26-1,36.1256083642927,128.330185368951
커피어스,경상북도 포항시 북구 중흥로 161,36.0190732231887,129.354414163587
읍천리382오천문덕점,경상북도 포항시 남구 오천읍 냉천로302번길 57,35.9673738195186,129.403408273837
메가엠지씨커피구미구평점,경상북도 구미시 인동36길 9,36.0935115885453,128.432639244566
갤러리오모크(갤러리오모크카페),경상북도 칠곡군 가산면 호국로 1366,36.0498137672971,128.50697312259
루트7,경상북도 포항시 북구 청하면 월포로159번길 2,36.2036570181354,129.369874701343
이디야커피구미,경상북도 구미시 송원서로 29,36.1203463646828,128.342471903942
대림노래클럽,경상북도 경주시 태종로791번길 6,35.8414063472379,129.214806982125
보성국민학교카페,경상북도 예천군 보문면 미호길 55,36.6676912778118,128.50350084119
더벤티구미,경상북도 구미시 신비로 4,36.1231063269357,128.363213653799
지비컴퍼니메일빈24,경상북도 경주시 용담로104번길 52,35.8680326868642,129.213652004113
더벤티장성현대점,경상북도 포항시 북구 장량로139번길 32,36.0845089700778,129.394717728211
오이드커피,경상북도 경산시 대학로9길 56-3,35.8393704008234,128.725745083884
트리플에이커피,경상북도 포항시 남구 대이로 149,36.0283590885053,129.339694727066
커피앤드스토리,경상북도 김천시 시청7길 20,36.1371312909724,128.113853897065
베스트프레즐,경상북도 경산시 박물관로 23,35.8159584727588,128.761463342024
체리코나,경상북도 의성군 단밀면 도안로 826,36.3565332058768,128.30306822669
투썸플레이스구미들성공원점,경상북도 구미시 고아읍 들성로 179,36.1594771576399,128.340463588581
카페무화,경상북도 경산시 진량읍 대구대로 252-10,35.8965732925689,128.851217599913
더벤티구미들성점,경상북도 구미시 고아읍 들성로 171-21,36.1592966336449,128.337373030942
나잇앤데이,경상북도 경산시 진량읍 대구대로 214,35.8969696343364,128.846148485899
드롭탑포항대잠점,경상북도 포항시 남구 중섬로 16,36.0140582647206,129.346774031196
카페아이딜릭,경상북도 포항시 남구 연일읍 중명길 39,35.9918668794462,129.315356054005
1리터리얼커피,경상북도 구미시 여헌로 74-1,36.1081822024688,128.42577776111
카페4503,경상북도 영덕군 강구면 동해대로 4503,36.3591605645882,129.379101832037
그리고이야기,경상북도 구미시 원남로 66,36.1281293227159,128.327873954282
소푸,경상북도 안동시 대안로 24-1,36.5652756809868,128.715394913992
나우커피포항,경상북도 포항시 북구 장성로 92,36.0843665587832,129.392239289113
라떼는말이야,경상북도 경산시 둥지로 62-1,35.8425857349807,128.751068692471
공차구미,경상북도 구미시 신시로 67,36.1138856616479,128.33874492028
엘아르카,경상북도 경산시 백양로29길 3-11,35.8127075580407,128.756729441393
하늘이내리다나린,경상북도 예천군 용궁면 회룡포길 365,36.5751651255236,128.320557850483
세잔느,경상북도 포항시 북구 침촌마을길 24-22,36.0797890216706,129.379713055184
카페포스트,경상북도 경산시 남천면 남천로 469,35.7668425984574,128.726943619801
커피테이크아웃,경상북도 포항시 남구 대송면 철강로 204,35.9859790830496,129.364016922252
더리터영주,경상북도 영주시 구성로 362,36.8240525134968,128.622560297061
커피킹덤루프탑점,경상북도 안동시 경북대로 649-20,36.5871840452932,128.698689038345
뉴욕쟁이디저트경산,경상북도 경산시 하양읍 대학로298길 18,35.911843211426,128.825123238575
해낸다스터디카페,경상북도 경산시 강변서로 237,35.8287768719069,128.730706612321
빌리랩커피,경상북도 포항시 북구 대곡로 46,36.0672147956613,129.373621310039
올로르,경상북도 경산시 대학로16길 20,35.8320588396897,128.730515334825
커피팀버김천,경상북도 김천시 남면 모산길 9,36.1175298421073,128.190507330389
커피프렌즈,경상북도 성주군 성주읍 성주순환로 95,35.9256994949834,128.27992869338
카페봄봄,경상북도 김천시 용전1로 48,36.1218329659883,128.188018185595
소월애,경상북도 경산시 와촌면 지식산업8로6길 51,35.9506746991694,128.835037504326
명동다방,경상북도 포항시 남구 구룡포읍 구룡포길 85-1,35.9912418230884,129.555148428749
카페솔목,경상북도 구미시 봉곡로18길 11,36.1514436337127,128.311790140631
넥타,경상북도 경산시 삼성현로 883,35.7982171785621,128.794019949858
톰소여의모험,경상북도 안동시 와룡면 동악골길 83,36.5938069562525,128.776053701007
독고커피,경상북도 포항시 북구 새천년대로 1123,36.0688118409289,129.371884077356
컴포즈커피포항초곡지구점,경상북도 포항시 북구 흥해읍 초곡지구로 83,36.0940090930638,129.340119725283
1리터맥스,경상북도 경주시 유림로33번길 10,35.8712273445297,129.21591536579
컴포즈커피포항우현점,경상북도 포항시 북구 아치로 7,36.0503958787891,129.361154434452
커넥티드커피,경상북도 예천군 호명면 양지1길 30-3,36.5768398455766,128.477244176903
리프패럿,경상북도 구미시 산동읍 신당2로 29,36.1558751226299,128.431747928495
나비나래,경상북도 김천시 영남대로 1938,36.1202556659983,128.142268192708
르하임스터디카페,경상북도 경산시 대학로59길 11-7,35.8375088570176,128.752902569323
대잠975,경상북도 포항시 남구 대이로15번길 3,36.0167395609115,129.343147748686
로디,경상북도 상주시 상산로 106,36.4003955706669,128.159800958424
아느칸197,경상북도 안동시 서후면 봉정사길 197,36.6476137453832,128.664933498171
에스티카페,경상북도 안동시 예일길 22,36.5508835942728,128.719841916965
베이크넛,경상북도 예천군 호명면 새움3로 30,36.576508710772,128.490002553934
나우커피,경상북도 구미시 인동중앙로 29,36.1080518660849,128.421856269384
더벤티,경상북도 포항시 북구 천마로72번길 32,36.0829190279518,129.400451884639
월루,경상북도 영주시 시청로 5,36.8067605375869,128.623966853892
카페153,경상북도 칠곡군 석적읍 남율로7길 6,36.0658520065215,128.401182607443
카페달콤공장,경상북도 안동시 서경지1길 3,36.5625860307823,128.714565759373
민화카페,경상북도 안동시 화성길 32,36.568227281841,128.726549850526
이디아커피영천우로지점,경상북도 영천시 언하공단로 91-12,35.9852091371071,128.953925576181
지나가다봄,경상북도 포항시 남구 문예로 138,36.0178358536464,129.368936561436
더벤티구미점,경상북도 구미시 구미대로22길 11,36.1137982787564,128.365414582439
봄봄구룡포점,경상북도 포항시 남구 구룡포읍 호미로 225,35.990405055818,129.555043287957
장사리카페,경상북도 영덕군 남정면 동해대로 3606,36.2829544577043,129.37453178669
퍼즈커피,경상북도 포항시 북구 양학로10번길 23,36.026706729487,129.352814041533
기록,경상북도 경주시 용황구획4길 20-10,35.8818904164877,129.225569341075
카페풀,경상북도 구미시 신비로 147,36.1223218874856,128.377885136583
카페본동,경상북도 경주시 양남면 나아4길 16-1,35.7007753687738,129.47260718195
길다방,경상북도 포항시 북구 흥해읍 흥해로 71-1,36.1111771767406,129.34737521636
리윤익,경상북도 예천군 예천읍 봉덕로 52,36.6533263979024,128.442103206961
가배원,경상북도 포항시 북구 기북면 덕동문화길 12-2,36.1651970347347,129.186329589525
여름,경상북도 구미시 산동읍 해마루공원로 115,36.1445686583897,128.427930044913
쿠키정원,경상북도 경산시 백양로35길 11,35.8119829296177,128.760152858666
알티테라스,경상북도 청도군 화양읍 온천길 36,35.6893457718424,128.7179313475
카페펀,경상북도 영천시 임고면 포은로 580,36.0277119257286,128.974287326159
그곳에가면,경상북도 칠곡군 북삼읍 어로4길 114,36.0426437406745,128.323546152
마시그래이신대부적점,경상북도 경산시 압량읍 압독2로2길 38,35.8418112525419,128.763835711712
모과나무,경상북도 예천군 예천읍 대심1길 37,36.650557726771,128.440197208331
애플리,경상북도 포항시 북구 기북면 기북로 579-13,36.1376519072434,129.175704147038
카페66℃,경상북도 경주시 태종로791번길 17,35.8424724874773,129.214546509432
미식주간,경상북도 울진군 울진읍 읍내8길 46,36.994902943823,129.40389946555
카페포민,경상북도 예천군 용궁면 용궁로 96,36.6072889907397,128.275620008489
모리커피포항,경상북도 포항시 북구 흥해읍 초곡지구로 119,36.0933091648191,129.336621143509
카페달랏,경상북도 포항시 북구 기계면 새마을발상지길11번길 23,36.0686224932517,129.205958229006
꿀다방,경상북도 울진군 후포면 후포4길 73,36.6826534646509,129.457534148215
라붐,경상북도 포항시 북구 흥해읍 해안로 1777-7,36.1609481044059,129.397215298138
카페바이올렛,경상북도 경산시 성암로5길 1,35.8226832446674,128.720369545839
다나커피,경상북도 포항시 북구 장성로 7-1,36.0768683698061,129.39224031347
더비글즈,경상북도 봉화군 춘양면 문수로 2436,37.0078037101809,128.83218763382
푸코스바르벳,경상북도 포항시 남구 효자동길10번길 33-12,36.0097568049498,129.333290151861
더벤티포항학천점,경상북도 포항시 북구 흥해읍 도음로877번길 3,36.0791829320742,129.329687407184
알리바바파트너스,경상북도 김천시 혁신3로 16,36.1175971476492,128.181998405797
케이브커피,경상북도 영천시 문화새길 61-7,35.97200015919,128.947757166507
달콤커피홈플러스영주점,경상북도 영주시 대학로 29,36.8091536903919,128.62128529299
커피플레이스,경상북도 포항시 남구 오천읍 남원로 86-62,35.973060452877,129.400338005953
작은사치,경상북도 포항시 북구 대신로 21,36.0461206882629,129.367783697047
더컵커피라운지,경상북도 포항시 남구 중섬로 66,36.0122026099878,129.351501239706
윈느타임,경상북도 영천시 임고면 운주로 14,36.0165771609497,128.975891985938
포레스트제이,경상북도 구미시 산동읍 신당1로1길 17-7,36.1553476118217,128.4330675685
카페인가든,경상북도 상주시 동문1길 46,36.4181610394181,128.165145278076
마실커피&갤러리공방,경상북도 포항시 북구 새천년대로1249번길 6-18,36.074804761324,129.384444017196
오보드나타,경상북도 경주시 포석로1068번길 7,35.8363946188529,129.210402837299
화양다방,경상북도 청도군 화양읍 도주관로 152,35.6487033596303,128.705862035643
카페일공삼,경상북도 포항시 남구 오천읍 냉천로340번길 73,35.9642361739122,129.400437145792
만나다마음연구소,경상북도 포항시 북구 양덕남로 103,36.0788807723858,129.403599849106
커들리베이커리,경상북도 경산시 대학로59길 24,35.8389701529045,128.752717130961
카페나우,경상북도 안동시 새골1길 25,36.57242764886,128.714499994074
커피마루,경상북도 구미시 산호대로25안길 74,36.1439876135743,128.418926077708
메가커피,경상북도 포항시 남구 연일읍 철강로25번길 47,35.9958540411738,129.345898839123
요거트월드,경상북도 칠곡군 왜관읍 평장길 44,35.9841136875889,128.403507615633
램프앤,경상북도 경산시 대학로9길 15-1,35.8354943860893,128.727292614811
별마루,경상북도 경산시 백양로34길 9-8,35.8098233161841,128.75959008497
카페안녕,경상북도 안동시 경동로 862,36.5594835136447,128.750161955351
팔공티,경상북도 경산시 펜타힐즈2로 25,35.8270445246586,128.717542451525
부루,경상북도 구미시 산동읍 산호대로39길 20,36.1400723208904,128.437606016674
땡큐,경상북도 안동시 영호2길 15,36.561317661148,128.721659098572
베두타,경상북도 영주시 구성로142번길 6,36.8057593781173,128.629259588103
메가엠지씨커피,경상북도 경산시 대학로 323,35.8391635234185,128.756371805565
송아지다방,경상북도 포항시 남구 해동로 10-1,36.0203791379566,129.37429450141
봄봄,경상북도 영덕군 영해면 예주시장길 29,36.5393192910152,129.407176111381
커피에빠진모모,경상북도 상주시 상산로 251-12,36.4135817278025,128.159203535989
하프데이,경상북도 구미시 형곡로32길 17,36.1056863486907,128.337865604013
카페작은숲,경상북도 영천시 임고면 포은로 485,36.0200158193718,128.974192581124
킴썸,경상북도 포항시 남구 연일읍 자명로 229,36.0188394336389,129.303124067372
카페바나,경상북도 경주시 도초길 158-13,35.7976407409353,129.198585765221
홍대카페다방,경상북도 경주시 강동면 동해대로 166-11,36.0063100713371,129.285780737495
카페폴라,경상북도 영천시 우로들길 109,35.9848714118901,128.952191568485
리포유,경상북도 경주시 용황로12길 4,35.8826693024539,129.228726581307
디저트39안동옥동점,경상북도 안동시 옥명길 56,36.5640909562997,128.703977561856
카페반하다,경상북도 경주시 산내면 단석로 700,35.7585101924486,129.045568452061
커피쉐프,경상북도 청도군 이서면 칠곡길 1,35.6945593606897,128.687946189735
그곳에가고싶다,경상북도 문경시 흥덕1길 3,36.6001547976121,128.201891910027
룩스커피,경상북도 포항시 남구 오천읍 하원로47번길 15-6,35.9745664732269,129.402570996835
복고다방경산,경상북도 경산시 중앙로16길 12,35.822220352159,128.73578156075
더벤티포항흥해점,경상북도 포항시 북구 흥해읍 흥해로 45-10,36.1094486349735,129.346412753423
봄봄인동점,경상북도 구미시 인동중앙로3길 19,36.1079982096936,128.419168078067
굿스페이스인테리어,경상북도 구미시 구미중앙로 150-3,36.12577481881,128.338362717424
블랙메세지,경상북도 구미시 상사동로 159,36.0987938176793,128.358748273334
그라찌에가톨릭상지대학교점,경상북도 안동시 상지길 45,36.5694061434375,128.737107797464
옛이야기,경상북도 경산시 와촌면 새터길 113,35.9568548415,128.798353836102
다방물볕,경상북도 경산시 하양읍 무학로 8,35.9170027101739,128.815293442548
라클라세빈,경상북도 안동시 강남로 287,36.5537517453517,128.732781405577
카페하야,경상북도 경주시 봉황로 61,35.8450599256665,129.210003156216
더벤티지곡점,경상북도 포항시 남구 지곡로 257,36.0292191054823,129.32393200863
텐퍼센트스페셜커피경주,경상북도 경주시 현곡면 용담로 548-18,35.8904379981717,129.174707590554
별밤카페,경상북도 영주시 풍기읍 안풍로 307-16,36.8705020142721,128.54093416806
카페다,경상북도 구미시 인동남길 176,36.0938149329949,128.433495995263
더벤티4공단산업단지점,경상북도 구미시 산동읍 첨단기업1로 18,36.1406063706468,128.439442401132
코튼필드,경상북도 구미시 선기로3길 31,36.1284956514948,128.315643402512
소디스커피,경상북도 영천시 창신2길 27,35.9886919118925,128.956839787693
이곳커피문덕점,경상북도 포항시 남구 오천읍 북원로41번길 46,35.9769102717176,129.40020643629
수박,경상북도 경주시 포석로1068번길 15,35.8362147047637,129.211263435354
카페르페,경상북도 안동시 서동문로 88-1,36.5666352510946,128.721585666536
크루그카페,경상북도 경주시 화랑로 83-1,35.8448348636724,129.209977598375
퀸즈커피,경상북도 안동시 경동로 662,36.5629413089349,128.730298707846
컴포즈커피산동점,경상북도 구미시 산동읍 신당3로 15,36.1574585073654,128.432545703344
잠시,경상북도 구미시 인동54안길 6-7,36.0922548233847,128.446013664011
앞치마사나이인생역전,경상북도 영천시 완산로 6,35.9606546876916,128.939517725446
베네치아,경상북도 경주시 용담로92번길 51,35.8677837867465,129.21420184529
커피동네다방,경상북도 경주시 문무대왕면 어일중앙길 21,35.7914903120012,129.442620370445
작은마을카페,경상북도 영천시 금완로 47,35.9605566897583,128.933596645654
드롭탑경주노동점,경상북도 경주시 동성로 122-3,35.842957695306,129.213801195973
어딕션,경상북도 경주시 윗동천안길 19-1,35.8500143614069,129.238562171297
잇즈,경상북도 경주시 충효3길 14,35.8428023240161,129.186037083989
광명유통,경상북도 경주시 현곡면 충현로 435,35.8759968434527,129.158282101317
커피명가보문점,경상북도 경주시 천군1길 7,35.8337863452673,129.276937032964
브라운슈가,경상북도 경주시 밝은마을길 5,35.8307194427817,129.23141142878
신형섭커피,경상북도 경주시 북정로 19,35.842664360021,129.215180381274
사브리나,경상북도 경주시 양정로 317,35.8610970816938,129.223898390154
캔모아,경상북도 경주시 동성로 125-1,35.8433401529743,129.214305143453
엔제리너스,경상북도 김천시 시청로 15,36.1299352365514,128.117687639313
신경주경주빵찰보리빵불국사점,경상북도 경주시 진현로2길 54,35.7857424786052,129.327414704582
헤리티지,경상북도 경주시 보정로 633,35.8303400884988,129.283179186246
다흰,경상북도 경주시 보문마을길 75-50,35.8367824116709,129.250863728188
아로테스,경상북도 경주시 한빛길10번길 51,35.8550361011957,129.205615638615
이디야경주점,경상북도 경주시 화랑로 101,35.8448403692343,129.212114104224
파라다이스,경상북도 경주시 보문로 74-13,35.8505310083014,129.264242193219
신경주다방,경상북도 경주시 백률로82번길 26,35.8542652382361,129.228332418489
커피맘,경상북도 경주시 산업로 3038,35.7770324032393,129.298038332123
마시그래이,경상북도 포항시 남구 오천읍 원동로 78,35.9698754353476,129.40296473681
경상북도지방경찰청복지회,경상북도 안동시 풍천면 검무로 77,36.5779268913558,128.500068062403
클래식브라운,경상북도 경주시 알천북로 341,35.8440957097408,129.234795095411
바이림의착한커피,경상북도 경주시 백률로 19,35.856787864835,129.221352200684
커피한잔,경상북도 경주시 용담로54번길 17-19,35.8649731984985,129.214956178913
플레도,경상북도 경주시 진현로1길 27,35.7838331406373,129.325657453516
신라커피숍,경상북도 경주시 감포읍 감포로 137-4,35.8064270791204,129.501982401056
어바웃커피,경상북도 경주시 동대로 2,35.8554044676544,129.20662867891
어바웃커피,경상북도 경주시 석장길 56,35.8614196121169,129.190909218639
커피플레이스,경상북도 경주시 충현로 65,35.8498299157133,129.168805668707
슈만과클라라,경상북도 경주시 한빛길36번길 36-1,35.8536274779083,129.203180882552
쿤스트,경상북도 칠곡군 가산면 학산1길 57,36.0533903187874,128.498760357531
차한잔,경상북도 칠곡군 가산면 인동가산로 799-4,36.0996462455336,128.496242739374
더벤티,경상북도 포항시 북구 침촌지구로 8,36.0862833048213,129.379238078487
마리오델모나코,경상북도 경주시 첨성로 173,35.8359125777033,129.219748227612
어벤더치구미금오공대점,경상북도 구미시 대학로 39,36.1393236820848,128.396345015747
엔분의일,경상북도 포항시 남구 대이로189번길 11-8,36.0311091606056,129.337156071301
예전,경상북도 경주시 천북면 목실길 69,35.8688618326317,129.272871147438
빅스타건설,경상북도 경주시 재동길 50,35.8453810455654,129.167522721869
컴포즈커피두호,경상북도 포항시 북구 두호로 17,36.0596927136382,129.376487374191
2mo,경상북도 칠곡군 왜관읍 중앙로 249,35.9971182801132,128.398516126112
교동석등있는집,경상북도 경주시 교촌안길 15-3,35.8298680181698,129.215892779096
풍경,경상북도 칠곡군 북삼읍 북삼로8길 5,36.0709248657275,128.337283915081
한국쇼콜라티에교육진흥연구소,경상북도 문경시 당교2길 36,36.5840752116377,128.186339227588
품안,경상북도 칠곡군 동명면 가산산성길 7,36.0143594911912,128.594653452195
제우스커피숍,경상북도 영천시 완산중앙3길 15,35.9619523369724,128.937238255627
일사오,경상북도 포항시 북구 해안로445번길 13,36.0729088060408,129.404870263324
포유카페,경상북도 청도군 청도읍 새마을로 1097,35.6326280934178,128.755591548181
이머꼬,경상북도 울진군 매화면 매화3길 20,36.9120981467152,129.379544164205
파가니니,경상북도 경산시 진량읍 대구대로 201,35.9045278677195,128.842827911436
머그하우스,경상북도 청도군 풍각면 봉기안길 53,35.6413485669884,128.601152678317
브라운부케,경상북도 울릉군 울릉읍 사동1길 43,37.4770567801889,130.891278290843
백상개발,경상북도 경주시 양정로 186,35.8493456258239,129.223784197529
그림커피,경상북도 경주시 포석로1092번길 60,35.8353949672289,129.214792808128
카페칸타타,경상북도 포항시 북구 학산로 62,36.0496430771982,129.369487134497
포항동빈나루카페앤우쿨렐레,경상북도 포항시 북구 불종로 81,36.0384489441274,129.368771739066
블루샥,경상북도 포항시 북구 장량중앙로 55,36.0903165281833,129.388191464335
이드,경상북도 포항시 남구 대이로20번길 20,36.0175026558335,129.345823131809
경북경주시니어클럽루왁,경상북도 경주시 중앙로 16,35.8412923365657,129.211816600391
뭉클,경상북도 경주시 숲머리길 138,35.8417542106708,129.251174238765
홈플러스이디야커피,경상북도 안동시 경동로 656,36.5625673358293,128.729557863271
커피비치,경상북도 안동시 경동로 220,36.5732215474626,128.685188982728
커피비치,경상북도 안동시 옥동1길 27-14,36.5592560429883,128.70013551423
커피미오,경상북도 청송군 청송읍 중앙로 242-1,36.4338164812061,129.055400732886
마녀,경상북도 안동시 임청각길 1,36.5644290697311,128.741853232202
천인인터내셔널,경상북도 안동시 풍산읍 풍산중앙길 92,36.5799969393072,128.570903613556
이디야커피,경상북도 안동시 강남5길 35,36.5504709846278,128.734303042195
인테리어스토리카페,경상북도 안동시 퇴계로 220-34,36.5778650112603,128.733288541481
카페피노PO,경상북도 봉화군 물야면 오록길 12,36.9774923791187,128.736228930771
카페아리,경상북도 안동시 서경지2길 37,36.5611891939906,128.716061034609
유아히어,경상북도 안동시 강남로 277,36.5536317564387,128.73177494595
부쉬,경상북도 경주시 원효로 101-3,35.842353671904,129.212031990358
카페플랜비,경상북도 안동시 중앙로 67,36.5651091048369,128.733905308893
오후4시커피숍,경상북도 청송군 청송읍 중앙로 185,36.4374552202221,129.051557488337
영휴게실,경상북도 의성군 안계면 안계길 126,36.3839155493389,128.438801076788
미스터브리즈커피,경상북도 안동시 옥서1길 71,36.5608964264282,128.693939033717
커피구름,경상북도 의성군 의성읍 후죽5길 26-1,36.3530324777316,128.697816426848
그녀의홈카페,경상북도 안동시 서후면 봉정사길 103-1,36.6405627598278,128.670397240107
시고르앤틱카페,경상북도 청도군 화양읍 삼신길 105,35.6977839193084,128.716150624033
강변갤러리카페,경상북도 안동시 안기천로 10,36.5584885911452,128.715555761328
카페페르떼,경상북도 의성군 의성읍 중앙길 76-1,36.3511995612233,128.696853056279
카페라이프,경상북도 안동시 중앙로 56,36.5649091903355,128.732708022286
396커피,경상북도 안동시 옥동길 32,36.5600593261414,128.699930508118
카페에비뉴220,경상북도 안동시 북순환로 220,36.58981409856,128.742174337577
다샘,경상북도 의성군 의성읍 홍술로 105-23,36.356743893634,128.688791006414
보헤미안,경상북도 안동시 전거리1길 61,36.5599122902752,128.747898348916
커피앤드비,경상북도 안동시 중앙로 22,36.5658242772262,128.728974026335
낭만커피,경상북도 안동시 옥서4길 53-8,36.5590728419795,128.691375713345
엔제리너스커피안동옥동점,경상북도 안동시 광명로 175,36.5632205916692,128.701802355198
삼형제숯불,경상북도 영덕군 강구면 해상공원길 77,36.3493683090964,129.384243039434
컴포즈커피,경상북도 포항시 북구 용두산길 39,36.0673105776577,129.380971453431
마인드공원,경상북도 김천시 신음새동네길 5-2,36.1349188438541,128.118261736718
휴먼테크,경상북도 경주시 용담로 92,35.8643025150076,129.21175713415
카페데이미,경상북도 포항시 남구 대이로 177,36.030613770472,129.338745424331
아로마커피,경상북도 포항시 남구 중앙로 158,36.0270774812935,129.367798352349
오니와플,경상북도 영천시 삼산길 22-4,35.9724804511779,128.93709658608
감나무c.c,경상북도 경주시 보문로 441,35.8442135354035,129.287963208662
바른,경상북도 포항시 남구 새천년대로410번길 11-7,36.0126471004934,129.344830970292
커피동문,경상북도 경주시 현곡면 안현로 54-7,35.8715866657698,129.205301593298
어썸19,경상북도 문경시 영순면 포내로 116-28,36.593827454099,128.212682942684
훌림목,경상북도 경주시 포석로 1061-9,35.8359103553961,129.209266514017
태평,경상북도 포항시 북구 송라면 보경로 456,36.2452029923591,129.320144927405
썬어게인SUNAGA,경상북도 포항시 북구 흥해읍 해안로 742,36.0883789834112,129.417436916189
카페1-21,경상북도 울진군 근남면 세포2길 1-21,36.9549649861424,129.41692020293
토프레소울진,경상북도 울진군 후포면 후포삼율로 118,36.6803667892107,129.442555252788
피렌체,경상북도 안동시 솔밭길 3,36.5530799012716,128.683536663986
이소,경상북도 고령군 대가야읍 지산길 7-7,35.7263849305495,128.264483850066
예화,경상북도 울진군 울진읍 현내항길 7,36.9928021035616,129.404770760492
시루봉커피,경상북도 청송군 주왕산면 공원길 212,36.3953582988641,129.145764178853
이디야,경상북도 안동시 서동문로 181-1,36.5661937064737,128.73192693407
보리수휴게실,경상북도 의성군 단밀면 주속길 44,36.3745673323735,128.381709358365
커피베이울진점,경상북도 울진군 울진읍 울진중앙로 79,36.989267887851,129.398830897102
커피1번가,경상북도 울진군 울진읍 연호로 17,36.99372451909,129.402967875734
이디야경북,경상북도 영덕군 영덕읍 중앙길 96,36.4110607512122,129.369605441382
가원농장,경상북도 울진군 울진읍 읍내5길 23,36.9925577349671,129.402575736194
카페젤코바,경상북도 안동시 태사2길 6,36.5666128317839,128.731182353074
르카페말리,경상북도 울진군 죽변면 죽변중앙로 32,37.0503328994384,129.413418842993
대구여관,경상북도 영덕군 남정면 진불1길 5,36.2833895721378,129.37352649949
카페베네,경상북도 포항시 남구 송도해안길 52-1,36.0354861470014,129.379583404296
콩,경상북도 울진군 북면 울진북로 2070,37.1012683553164,129.372988890264
카페카리타스,경상북도 포항시 남구 형산강북로 389,36.0097318734023,129.367520802213
황제다방,경상북도 영덕군 병곡면 병곡2길 4,36.6018780737501,129.411675757949
"담하가비갤러리카페,민박",경상북도 울진군 울진읍 대나리항길 143,37.0009449471641,129.414885759257
비더블유브이211,경상북도 경산시 압량읍 조산로 11,35.8447971501789,128.762015648066
도로시퓨전포차,경상북도 울진군 후포면 상밤터1길 21,36.6829305038768,129.441439559411
커피소노,경상북도 포항시 남구 대이로159번길 12-14,36.0296190352581,129.338240403419
나무커피,경상북도 울릉군 울릉읍 도동길 53,37.4826364192754,130.907996695778
준커피로스터,경상북도 포항시 북구 해안로 241-1,36.0634762161879,129.389129438726
커피베이대각점,경상북도 포항시 남구 대송면 운제로386번길 2,35.9549538414866,129.362031178486
벨라빈스,경상북도 포항시 북구 중흥로 299,36.0291717164804,129.362753011564
망고식스포항문덕점,경상북도 포항시 남구 오천읍 원동로 51-1,35.9677175767613,129.402527444778
카페플로리안,경상북도 경주시 포석로1068번길 6,35.8361439712933,129.210233004799
파스쿠찌효자,경상북도 포항시 남구 형산강북로 73,36.0051240745291,129.334942456612
비아델피노,경상북도 포항시 북구 신덕로112번길 30-18,36.0891844677458,129.404904483836
프레그런스커피,경상북도 포항시 북구 양학로9번길 12-1,36.0239833719164,129.350559700984
토요일오후,경상북도 포항시 북구 죽도시장길 4-1,36.0348502083649,129.365857821081
애니앤길버트,경상북도 포항시 남구 포스코대로 346,36.0171973923168,129.360893896138
스윗스텝커피,경상북도 포항시 남구 대이로143번길 17,36.0272758900708,129.338234054963
오아시스레스토랑,경상북도 포항시 북구 해안로 389,36.069397519373,129.400722767118
제이스커피,경상북도 포항시 북구 중앙로 377,36.0462859029585,129.364357433279
아라비카커피로스터스,경상북도 포항시 북구 해안로 185-1,36.0641357264815,129.383535553532
크레마커피랩,경상북도 포항시 북구 삼호로 479,36.0707307947031,129.399225589911
모캄보,경상북도 포항시 남구 연일읍 유강길10번길 34-10,36.0061990365823,129.322515455536
우바커피,경상북도 포항시 북구 대곡로 50,36.0674852371764,129.373614911748
커피테라피,경상북도 포항시 남구 포스코대로 119,36.0257994735298,129.338896951939
카페몰리,경상북도 포항시 북구 삼흥로 77-18,36.0693075597629,129.378164583833
모캄보흥해점,경상북도 포항시 북구 흥해읍 중성로 32,36.1085159336692,129.346807765382
포항운하스케치,경상북도 포항시 남구 해동로96번길 20,36.028211712672,129.374219740012
파스쿠치지곡점,경상북도 포항시 남구 포스코대로 74,36.0258360964321,129.333993734799
가디너스,경상북도 포항시 북구 창흥로 117,36.0688633819342,129.361039633583
드뷔시,경상북도 포항시 남구 대이로189번길 17-6,36.0310074641384,129.336577392683
레츠비,경상북도 포항시 남구 오천읍 냉천로320번길 26,35.9662682176954,129.406237862393
효자동커피집,경상북도 포항시 남구 형산강북로 95,36.0049161864461,129.337423497334
태양과달,경상북도 포항시 북구 중앙상가2길 9,36.0369511730158,129.363386367198
달콤부동산,경상북도 포항시 북구 해안로 205,36.0647678474002,129.385766632786
이디야,경상북도 포항시 북구 대이로 188,36.0317999571402,129.339053980747
선인장로스터즈,경상북도 포항시 북구 흥해읍 초곡지구로52번길 21,36.0968157310188,129.337357913251
민속카페&커피,경상북도 상주시 공성면 공성중앙로 51,36.2827072511788,128.092558251159
아르떼,경상북도 포항시 북구 장미길 41,36.0524085569607,129.363275580456
커피스미스포항,경상북도 포항시 남구 오천읍 충무로 3,35.9765056050311,129.410133815076
카페라떼루,경상북도 포항시 북구 흥해읍 동해대로 1517,36.1076115391919,129.342272126648
카페엔,경상북도 포항시 북구 학산로11번길 6,36.0496272525428,129.363760317947
사탕,경상북도 포항시 북구 삼호로47번길 25,36.0471340669274,129.368222937169
더카페,경상북도 포항시 남구 구룡포읍 동해안로 4376-30,35.9528972554603,129.545905982034
미세스팩토리,경상북도 포항시 북구 학전로 69-11,36.0590389582215,129.374555815081
그린원,경상북도 포항시 남구 오천읍 남원로 76,35.9708223012223,129.401373898528
65도씨,경상북도 포항시 북구 중흥로255번길 3,36.0258393591926,129.360177137681
마리스커피,경상북도 포항시 남구 구룡포읍 호미로 243,35.9912993249973,129.556968231863
카페혜나루,경상북도 포항시 북구 새천년대로1076번길 35,36.0645102020239,129.375272593464
투썸플레이스,경상북도 포항시 북구 장량로 155,36.0820258195363,129.397449481057
버블피피38℃,경상북도 포항시 북구 용당로 118-17,36.0378783776848,129.3634800249
풍경이있는커피,경상북도 포항시 북구 장량로61번길 15,36.0839843949023,129.387114183752
엔제리너스커피,경상북도 포항시 북구 해안로 87,36.0565884788345,129.377620891499
그린빈카페,경상북도 울릉군 울릉읍 도동1길 5-38,37.4820199193263,130.907791928177
아이리,경상북도 포항시 남구 문예로 38,36.0110995474126,129.364549439805
커피마미,경상북도 포항시 남구 중앙로92번길 1,36.02141750015,129.369397898889
까페모캄보,경상북도 포항시 북구 장량주택로4번길 11,36.0875485376329,129.390629916779
라운디드,경상북도 구미시 형곡로26길 6-13,36.1076678216645,128.331909613556
맛있는카페티앤커피,경상북도 포항시 북구 법원로11번길 30,36.0761747786178,129.382869394117
파스쿠찌,경상북도 포항시 북구 불종로 42,36.0384937965691,129.36404545433
범선카페펜션,경상북도 포항시 북구 흥해읍 해안로 1477,36.1395716354026,129.392547456363
레드립스커피,경상북도 포항시 북구 해안로 55,36.0536134039459,129.376925325003
프렌즈데이,경상북도 포항시 북구 양덕로 17,36.0801644373964,129.401724191192
사랑싸개,경상북도 포항시 북구 중앙상가길 32-5,36.0376464254793,129.364064128533
꺄페두,경상북도 포항시 북구 두호로 22,36.0600654562572,129.376205282326
엘루체,경상북도 포항시 북구 환호로62번길 7,36.0746331683453,129.390702218608
커피펍,경상북도 포항시 북구 삼호로25번길 1,36.0432675131259,129.367456915614
모티커피,경상북도 포항시 남구 효성로15번길 19,36.0069814928743,129.337292001472
커피인스,경상북도 포항시 북구 흥해읍 중성로 38,36.1085378461754,129.34726349636
박진희,경상북도 포항시 남구 형산강북로 75,36.0051040780936,129.335119587477
이니아니,경상북도 포항시 북구 흥해읍 동해대로 1521,36.1079487132483,129.342744323674
푸른초원,경상북도 포항시 북구 용당로 124,36.0382270860699,129.362931218899
삐갈레,경상북도 포항시 남구 효자동길 6,36.0081956493552,129.33022460314
라고챠,경상북도 포항시 남구 연일읍 연일중앙로 36,35.9971291679506,129.347916816213
함경찬굴국밥,경상북도 포항시 북구 대신로 48,36.0484974423626,129.368002380771
곰곰,경상북도 포항시 북구 새마을로 90,36.0412132946028,129.350709642564
까페길,경상북도 포항시 남구 장기면 장기로 519,35.9087523980047,129.486178185899
모캄보,경상북도 포항시 남구 형산강북로 77-1,36.0050727247167,129.335507269864
카페나운,경상북도 포항시 북구 학산로 62,36.0496430771982,129.369487134497
카페자주,경상북도 포항시 남구 포스코대로 322,36.0184750193741,129.358697146801
정원카페,경상북도 포항시 북구 아치로 78,36.0521916943436,129.353782774875
꼰떼,경상북도 포항시 북구 천마로46번길 16,36.0805692689011,129.398700462886
기네스하우스,경상북도 포항시 남구 중앙로158번길 3,36.0274084676715,129.368014876104
건축카페정원,경상북도 포항시 남구 대이로60번길 14-4,36.0206061855818,129.342314762611
커피스미스영일대점,경상북도 포항시 북구 해안로 79-1,36.0559971026152,129.377322013985
논실커피로스터스,경상북도 포항시 남구 희망대로514번길 46,36.0230741356801,129.334368755249
토론토카페,경상북도 포항시 남구 연일읍 자명로145번길 3-18,36.0106906115781,129.304099182643
가지야커피숍,경상북도 포항시 남구 구룡포읍 구룡포길 155,35.990392591396,129.561552489874
예스커피,경상북도 포항시 남구 대이로175번길 3,36.0303276584678,129.338540867602
코나,경상북도 포항시 북구 장량로 223,36.0821262558986,129.405045347303
DAYDAY데이데이,경상북도 포항시 남구 중흥로 77,36.0127632066289,129.348937280698
친구랑,경상북도 포항시 북구 중흥로214번길 7,36.0223569559187,129.358908018371
커피트리,경상북도 포항시 북구 용흥로 36,36.0350952266468,129.353789691459
비터스윗,경상북도 포항시 북구 흥해읍 도음로856번길 27-37,36.0764789825797,129.328898062152
시계태엽시크릿,경상북도 포항시 북구 중앙로 423,36.0497008687577,129.362041403146
카페드반트,경상북도 포항시 남구 장기면 양포항길 13,35.8784760404231,129.51747169721
카페보경로498,경상북도 포항시 북구 송라면 보경로 498,36.2485201712962,129.320078337951
카페다빈치오천힐링,경상북도 포항시 남구 오천읍 냉천로252번길 1,35.9720566176455,129.409101194519
로스터리맨,경상북도 포항시 북구 환호공원길 3,36.0677469015339,129.390003762148
동영,경상북도 포항시 남구 포스코대로 96,36.0250261064405,129.336321027436
봉주루,경상북도 포항시 남구 동해면 호미로 2667,36.0153527586237,129.489563787344
커피숍해밀,경상북도 포항시 북구 흥해읍 도음로 637-2,36.0798491414567,129.305984182555
삼보다방,경상북도 포항시 북구 중앙로 238,36.034183427192,129.365846307311
향,경상북도 포항시 북구 법원로8번길 7,36.0759608928395,129.387339603968
커피밀포항,경상북도 포항시 남구 효자동길2번길 53,36.0097006477319,129.33590701097
카페티타,경상북도 포항시 북구 양덕로30번길 31,36.0814536334978,129.405532985076
시트러스로스터즈,경상북도 경주시 한빛길36번길 16-1,35.8519050799454,129.203276635096
디어빈스,경상북도 경주시 석현로 63-6,35.8598322438225,129.189202581302
그녀의홈카페,경상북도 경주시 공영주택길 25-1,35.8549142772861,129.209665761982
메이드바이사브리나,경상북도 경주시 양정로 126-1,35.8454014562331,129.220790151711
커피나뜨래충효2,경상북도 경주시 충효중앙길 15,35.8418999939808,129.188879495271
커피볶는마노,경상북도 경주시 원화로 167,35.8363276850563,129.220584708211
커피하우스,경상북도 영천시 상록4길 25,35.9744913164788,128.940424558883
이디야커피황성유림점,경상북도 경주시 용담로92번길 66,35.8688887660652,129.215447793456
더빈스커피앤노상치킨,경상북도 경주시 안강읍 구부랑3길 32-8,36.0020097696651,129.19347446868
테라커피,경상북도 경주시 양남면 해변공원길 65,35.6744946117523,129.46371849502
골드카페,경상북도 경주시 현곡면 가삼골2길 31,35.8702947305899,129.195692721672
사브리나건천,경상북도 경주시 건천읍 건천2길 6,35.8487088765067,129.103397682384
이디야경주,경상북도 경주시 금성로 413,35.8546115763413,129.206605592961
위스,경상북도 경주시 양정로 254-6,35.8553981855313,129.225061810625
대림커피숍,경상북도 영천시 대창면 금박로 1053-1,35.8755051626522,128.895255694609
커피플레이스,경상북도 경주시 양정로 305,35.8601042569915,129.224038130032
커피안단테,경상북도 경주시 황성로64번길 9-3,35.8676070318586,129.218307122462
대림솔라떼,경상북도 경주시 포석로 607,35.7956669809222,129.205791143947
커피플레이스금장점,경상북도 경주시 현곡면 금장5길 34,35.870458761839,129.203634615896
오피점일공이,경상북도 경주시 금성로 275,35.8420098575096,129.206791049754
커피플레이스,경상북도 경주시 용담로104번길 25-2,35.8665653711143,129.211691930822
한옥카페부연,경상북도 경주시 보불로 88,35.7921232235443,129.314312703946
마티나타,경상북도 경주시 보문로 368-5,35.8472614673658,129.2802193658
커피플레이스,경상북도 경주시 중앙로 18,35.8414544300675,129.211830135079
카페.다이닝.로브스터,경상북도 경주시 보문로 529,35.8370131459379,129.285367495427
퐁텐카페,경상북도 경산시 원효로26길 26-2,35.8206576336052,128.749467684334
하바나,경상북도 경주시 계림로 109,35.8440065930816,129.213462956663
커피공방원다방,경상북도 경주시 용담로92번길 53,35.8679812530553,129.214282367142
청춘문화공간썰툰,경상북도 영천시 시청로 5,35.9713543856874,128.938180939994
건천다방,경상북도 경주시 건천읍 내서로 1144,35.8472057677415,129.105136990774
경주블리스커피,경상북도 경주시 보불로 158,35.7983107681604,129.313872532331
가례도감,경상북도 경주시 북문로 19,35.8502791730025,129.204536225173
셈커피테크아웃,경상북도 경주시 안강읍 구부랑두림길 130,36.0045285664374,129.199368926677
묵정갤러리앤드커피,경상북도 경주시 영불로 43,35.7713860856314,129.311726357566
토프레소,경상북도 영천시 산업단지로 323,35.9316992218642,128.948317623307
커피벨트,경상북도 경주시 양정로328번길 16,35.8623458034737,129.22517979222
끌림,경상북도 경주시 양정로275번길 12,35.857574334912,129.222892104609
행복한집키친,경상북도 경주시 국당동길 6,35.8271310068991,129.209354649529
벤자마스라운지,경상북도 경주시 윗동천길 2,35.8440398689277,129.237594788268
카모메,경상북도 포항시 남구 희망대로 1261,36.0414675111316,129.376691613815
품안커피숍,경상북도 경주시 새골길 191,35.7983743067075,129.312180946562
카페라포레,경상북도 경주시 양정로 229,35.8532277092095,129.22402098581
감성커피,경상북도 구미시 고아읍 가들로 33,36.1595003910117,128.344942765551
소더비,경상북도 경주시 보불로 174-3,35.8002832327164,129.313993518919
퀸,경상북도 경주시 원효로 77,35.8422365858192,129.209340397347
버블버블진돌이네,경상북도 경주시 안강읍 구부랑2길 14-5,36.0005537333633,129.194883304957
홈플러스경주점이디야,경상북도 경주시 공단로 97,35.8734616041424,129.224874758731
누마루한옥커피,경상북도 경주시 보불로 267,35.8062333523505,129.308050556192
카라커피숍,경상북도 영천시 신녕면 장수로 1719-4,36.0454181035744,128.787072490304
커피베이,경상북도 영덕군 남정면 동해대로 3647,36.2862765868422,129.374033482468
베로,경상북도 성주군 성주읍 성주읍1길 29,35.9202934351753,128.290513960389
블루하라,경상북도 김천시 평화시장5길 8-2,36.1231706762882,128.113344929448
리라어셈블,경상북도 포항시 북구 침촌지구로 10,36.0864892021534,129.380141027819
더벤티도구점,경상북도 포항시 남구 동해면 연오로7번길 1,35.9880915862512,129.44229915247
꿈,경상북도 김천시 대항면 직지로 174,36.1175357226595,128.018126086125
봉명동내커피포항남부점,경상북도 포항시 남구 상대로 69,36.015752427339,129.354789973803
씨엘로,경상북도 경산시 압량읍 청운로 85,35.84152135847,128.758375640193
영다방,경상북도 의성군 안평면 봉호로 933,36.3766073630978,128.580168649879
템퍼,경상북도 구미시 금오산상가길 13,36.1112650242096,128.314830242066
봄날&꽃자리,경상북도 경주시 포석로1092번길 46-6,35.8352302789052,129.21325181688
투썸플레이스경산신대점,경상북도 경산시 압량읍 대학로 365,35.8414106804843,128.760201061544
스테이101,경상북도 구미시 인동중앙로7길 12,36.1085747239345,128.421825743671
NOXCoffee녹스커피,경상북도 구미시 장천면 강동로 188,36.1261403114761,128.494998521404
아미브레,경상북도 구미시 문화로 36,36.1283893596121,128.334874304304
카페소담,경상북도 김천시 거문들2길 8,36.139234052289,128.076344405441
한컵카페,경상북도 구미시 신시로10길 12,36.1147722953199,128.340737065025
갤러리카페소풍,경상북도 김천시 남면 오봉로 153-3,36.0965503707982,128.256645450944
커피공감,경상북도 구미시 여헌로1길 24,36.1050698896789,128.421484914326
커피할배순천향점,경상북도 구미시 1공단로 179,36.1033991724502,128.382159321599
까페쏠트,경상북도 칠곡군 동명면 금암중앙길 57,35.9839679961948,128.553105668812
멜빈커피,경상북도 영천시 시장로 120,35.9634874559422,128.943764110319
자연의터생태,경상북도 영주시 가흥로 23-1,36.8032426784328,128.603643293119
플러터,경상북도 경산시 남매로 237,35.8320789308403,128.740488027601
카페띠아모,경상북도 영덕군 영덕읍 군청길 108,36.4147325334151,129.367685264128
라임스토리,경상북도 문경시 호서로 18,36.5964463726068,128.199143953976
베로에스프레스,경상북도 문경시 매봉4길 30,36.5868349938387,128.185038346975
꽃과놀다,경상북도 문경시 호계면 태봉1길 14,36.6471208846722,128.150869825459
새재이동커피,경상북도 문경시 점촌3길 16,36.5967028343521,128.196663374226
커피가게,경상북도 상주시 서성3길 13,36.4178705204149,128.160082072696
검호다방,경상북도 상주시 공검면 비재로 1295-1,36.5126758403303,128.157642221935
빈스빌리지,경상북도 상주시 중앙로 180-1,36.4155477745558,128.158215131372
솔베이지,경상북도 문경시 중앙로 126,36.5960031642262,128.200104007003
베로에스프레소,경상북도 상주시 서성1길 29,36.4164451795304,128.161093877583
초콜렛카페,경상북도 문경시 문경읍 우무실길 21,36.7221321784395,128.115674071881
니케,경상북도 상주시 남성3길 11,36.4118046208892,128.160426433358
17ST,경상북도 문경시 반쟁이1길 17,36.5925844328213,128.190997788255
보뇌르,경상북도 상주시 상산로 215-16,36.4100773839121,128.15804793923
오월,경상북도 상주시 삼백로 184,36.418676534021,128.163852830811
카페29번지,경상북도 상주시 북천로 29,36.4273954276915,128.154246591203
나눔카페,경상북도 문경시 점촌6길 1,36.5980203016453,128.20105925542
투섬플레이스경북상주점,경상북도 상주시 삼백로 88,36.4180867612918,128.153258035966
아베크,경상북도 상주시 동수2길 130,36.421000149643,128.158371160298
핸즈커피문경점,경상북도 문경시 모전로 70,36.5878617195696,128.19117613518
카페버스정류장,경상북도 상주시 함창읍 함창중앙로 94,36.567617464596,128.175317061372
커피한잔,경상북도 문경시 돈달로 54,36.5968344542523,128.193333030549
카페36.5,경상북도 문경시 중앙로 87,36.5935384184587,128.197337098687
블랙잔,경상북도 포항시 북구 장량로263번길 41,36.0858431397917,129.407021206967
코쿤카페,경상북도 상주시 동수로 156,36.4227250281589,128.155720540256
씽크빈,경상북도 문경시 영신로 102,36.592570361907,128.210075449708
하이샌드,경상북도 상주시 삼백로 136,36.4184314524111,128.158466305508
커피아날로그봉화점,경상북도 봉화군 봉화읍 봉화로 1133,36.8915718511404,128.734034219712
나무그늘식당,경상북도 영주시 선비로 88-1,36.8129818192752,128.62336727866
커피뱅크,경상북도 영주시 목민로 20,36.8076907367437,128.621867453492
카페트리,경상북도 영주시 선비로 71,36.8114578926922,128.623545454751
카페다온,경상북도 봉화군 소천면 소천로 1265-1,36.9395321862557,129.001566951336
이디야커피영주점,경상북도 영주시 영주로 228,36.8256538522797,128.624804017179
용궁카페,경상북도 예천군 용궁면 용궁로 118,36.6073643614404,128.27809067445
애플빈,경상북도 영주시 부석면 부석사로 1,36.9802720217586,128.657213416909
가로수,경상북도 영주시 부석면 부석사로 338-5,36.9945810681412,128.682973667154
부동산임대휴천동,경상북도 영주시 지천로50번길 29,36.8050262850825,128.621285569277
요거프레소예천점,경상북도 예천군 예천읍 효자로 90,36.6567526241386,128.453654885395
눈꽃나무,경상북도 영주시 대동로31번길 31,36.8179386934962,128.605854697249
카페콩티,경상북도 구미시 선산읍 선주로 111,36.2441013807895,128.298928541989
모캄보영주가흥점,경상북도 영주시 대학로187번길 8-2,36.8123688860598,128.605956507809
이디야커피영주가흥,경상북도 영주시 대학로 221,36.8152945814757,128.604802696827
카페트리,경상북도 구미시 금오산로 419,36.108427862388,128.307143883
커피트리,경상북도 포항시 남구 양학천로 182,36.0276164523624,129.36478986781
블루콕,경상북도 포항시 북구 죽도시장3길 11,36.0359143385065,129.365798524753
유명밥상.나꽃까페,경상북도 예천군 개포면 용개로 1011,36.6093780218876,128.363658508317
예뜰,경상북도 영주시 구성로349번길 6,36.8230504881152,128.622888462631
상희학교,경상북도 상주시 상서문1길 89,36.4115754739254,128.156523398872
강변하우스2,경상북도 구미시 고아읍 숭선로 151,36.1941486026515,128.362307221634
그래,경상북도 포항시 북구 장량로226번길 5,36.081428164721,129.405399303352
더벤티형곡,경상북도 구미시 형곡로 150,36.107764776148,128.332698621601
장춘다방,경상북도 영주시 중앙로80번길 14,36.8225951030829,128.625518967423
봉스커피,경상북도 영주시 이산면 이산로 254,36.8206055179822,128.661775229134
밤나무향기,경상북도 봉화군 봉화읍 궉말길 24-8,36.9031609613569,128.76682086263
투썸플레이스경북영주점,경상북도 영주시 대학로 8,36.810531714778,128.623156886147
포레,경상북도 포항시 북구 학전로 69-10,36.0591630688091,129.374735562257
리코르커피바,경상북도 구미시 산동읍 신당1로3길 17-3,36.1553275909192,128.43112255935
샤베이키,경상북도 포항시 남구 효자로118번길 25,36.0087999235154,129.337478006664
디저트연구소,경상북도 영천시 호국로 5,35.9713026483495,128.939034064668
더함,경상북도 안동시 풍천면 수호로 103,36.5793980443394,128.50169780115
포즈카페,경상북도 칠곡군 석적읍 유학로 193,36.0728360556554,128.43007242672
커피피코,경상북도 경주시 외동읍 외남로 1773-145,35.719236554763,129.337241032877
서롤,경상북도 영천시 영화새싹길 1-3,35.9641316731234,128.923516752525
사카커피숍,경상북도 김천시 대항면 황학동길 4-21,36.1145615651385,128.017225649873
카페홀빈,경상북도 김천시 직지천우안길 77,36.1274161708045,128.091853444154
쓰담,경상북도 김천시 부곡길 211,36.1258414486797,128.099928320533
파스쿠찌경북상주점,경상북도 상주시 상산로 363,36.4232977896682,128.158788444464
연휴게실,경상북도 성주군 초전면 대장1길 39,35.972985385833,128.262864541904
이디야커피상주점,경상북도 상주시 경상대로 3141,36.4277780865701,128.15101312362
카페.나인,경상북도 칠곡군 지천면 신동로 95-6,35.9574119333423,128.482913180164
커피왕정평점,경상북도 경산시 대학로8길 21,35.8327989861202,128.727367632747
넌지시,경상북도 포항시 남구 오천읍 남원로 85-99,35.9659977092778,129.400856270943
카페시우,경상북도 성주군 수륜면 성주가야산로 14,35.7857531978986,128.144888805117
커피인성주점,경상북도 성주군 성주읍 성주읍1길 7,35.9183947830211,128.289210596561
움터카페,경상북도 경주시 북성로29번길 14-1,35.8487673867889,129.205199707012
007티켓커피나무,경상북도 김천시 신양1길 8,36.1353258549027,128.116806809294
나루,경상북도 김천시 조각공원길 350,36.1327566667381,128.107714518067
그린즈,경상북도 성주군 성주읍 성주읍2길 4,35.9181900104339,128.288157204066
향천793,경상북도 김천시 대항면 괘방령로 1180,36.1273956024648,128.020205897755
마지,경상북도 김천시 부곡맛고을2길 94,36.1243674657083,128.094827221557
이디야커피경북성주점,경상북도 성주군 성주읍 성주로 3216-1,35.9183400729057,128.285708953963
바리스타비,경상북도 김천시 부곡맛고을3길 24,36.1250635200092,128.092195099035
요거프레소김천,경상북도 김천시 자산로 94,36.1202781833393,128.121839048087
토프레소김천,경상북도 김천시 시청1길 25,36.1405188634595,128.115214419673
르까페시크릿,경상북도 김천시 부거리길 25,36.1337671649799,128.116237850853
커피베이,경상북도 김천시 용전4로2길 31,36.1212894172678,128.195382148648
331로스터스,경상북도 김천시 대항면 황악로 1553,36.1236639758782,128.021638046554
소문마라탕,경상북도 고령군 대가야읍 우륵로 25,35.7321699138474,128.269322813888
칠칠휴게점,경상북도 성주군 초전면 대장길 89-9,35.9727765031291,128.263584577659
커피마실,경상북도 성주군 성주읍 성주순환로 14,35.918708996405,128.278297379052
시남,경상북도 김천시 봉산면 봉산로 600,36.1575709243736,128.020624859219
블라썸,경상북도 김천시 거문들2길 16,36.1397657530087,128.076444924986
커피마시는코끼리,경상북도 성주군 성주읍 성주읍3길 25,35.9202188009176,128.287821058237
통가,경상북도 김천시 신기길 66,36.1358955512216,128.114863218347
왕비휴게점,경상북도 성주군 수륜면 성주가야산로 908,35.830533639176,128.19479976377
투에이티,경상북도 김천시 구읍길 135,36.1409599171054,128.095369436979
밀라장,경상북도 포항시 북구 청하면 해안로2308번길 77,36.2038529245544,129.370867767818
미래개발,경상북도 안동시 육사로 273,36.5606000818206,128.734387711652
이디야커피상주,경상북도 상주시 상산로 243-1,36.4126802829578,128.15934665099
투썸플레이스포항,경상북도 포항시 북구 중흥로 123,36.0159432847179,129.352252888155
아마떼,경상북도 문경시 가은읍 대야로 2442,36.6496164881619,128.060169160529
요거프레소,경상북도 의성군 의성읍 동서1길 87-1,36.3502205259039,128.703974692586
파란,경상북도 안동시 석주로 383,36.5811271832074,128.776027342098
카페스토리,경상북도 포항시 남구 효자로 70,36.0109399333299,129.334685555359
커피카고,경상북도 경산시 중방로 119,35.8329263705724,128.746284663082
모어모어,경상북도 영주시 대동로31번길 21,36.8170644136069,128.605881432517
커피엔,경상북도 구미시 야은로 753,36.1241747112775,128.361607719948
더카페구미,경상북도 구미시 구미대로 256,36.1094826253698,128.364905872656
케이씨에스,경상북도 구미시 3공단1로 284,36.1072714073152,128.402448264658
앨리스스토리카페,경상북도 구미시 문장로12길 29-5,36.1417291377361,128.334642076203
이디야커피숍,경상북도 칠곡군 석적읍 석적로 939,36.0740253106329,128.393474723373
다락과마을,경상북도 구미시 문장로12길 15,36.1406410989815,128.33373741004
비아보스코,경상북도 구미시 금오산상가길 39-2,36.1108287501618,128.316216936264
미성커피브라운,경상북도 구미시 고아읍 들성로7길 15,36.1619383747611,128.343375160913
디세븐,경상북도 구미시 인동31길 10-11,36.0954498565448,128.432505499323
커피맛을조금아는자야,경상북도 구미시 형곡로 80,36.1139943550896,128.332113958261
더리터,경상북도 고령군 대가야읍 중앙로 6,35.7298195183943,128.268364227308
로작커피,경상북도 구미시 금오산로22길 1-14,36.1245322270792,128.328214497524
카페콩,경상북도 칠곡군 북삼읍 금오대로6길 41-9,36.0669298465683,128.350632824518
매스,경상북도 구미시 인동가산로 11,36.1077024580089,128.418688905738
구떼,경상북도 구미시 인동32길 43-1,36.0913952390491,128.429662691002
커피팀,경상북도 구미시 인동22길 57-16,36.0927654013606,128.424550790993
걷다보면,경상북도 구미시 산책길 31,36.1239431487966,128.332655775155
숨,경상북도 구미시 금오산상가길 37,36.1106851888666,128.315971996681
나무엔,경상북도 구미시 경은로 96,36.1144303187189,128.337369869546
소디스,경상북도 경주시 포석로 1079,35.8375928160807,129.209557693009
카페톤,경상북도 구미시 선산읍 선산중앙로 74,36.2425322557036,128.299289728449
파스쿠찌구미,경상북도 구미시 송정대로 54,36.1175910789921,128.344681624596
여담,경상북도 칠곡군 북삼읍 숭산로 268,36.076880067163,128.321765560056
여마그커피,경상북도 구미시 신비로 14-1,36.1225716033993,128.364188793304
더힐,경상북도 칠곡군 왜관읍 달오2길 71,35.9767297362312,128.401474077555
카페프로모션,경상북도 칠곡군 동명면 한티로 594,36.0085700293987,128.591637052415
모노블,경상북도 칠곡군 석적읍 유학로 200,36.0720683326437,128.430523428778
하루역,경상북도 칠곡군 왜관읍 중앙로5길 8,35.9928684495727,128.399914383935
카페희,경상북도 구미시 고아읍 들성로9길 29,36.1630062300188,128.345002582545
디온리블루,경상북도 구미시 인동46길 9,36.0922294782784,128.440683210256
커피메이,경상북도 구미시 봉곡로15길 49,36.152618546737,128.30704938046
카페드롭탑,경상북도 구미시 금오산로 174-6,36.1241152642252,128.325779814435
콩드립로스터,경상북도 구미시 봉곡로10길 9,36.1462804165271,128.311336320255
커피하루,경상북도 포항시 북구 새천년대로571번길 5,36.0253702780237,129.352247558096
메가엠지씨커피구미역점,경상북도 구미시 구미중앙로13길 3,36.1288481332976,128.331954319257
리엔케이,경상북도 청도군 화양읍 이슬미로 321,35.6885751368302,128.717173149911
유정,경상북도 경산시 경안로 288,35.8328386588847,128.735658208234
그릭데이즈,경상북도 포항시 남구 효성로15번길 23-20,36.0075611283043,129.337845303655
아틀리에빈,경상북도 경산시 하양읍 하양로 199-1,35.9178475374301,128.827501339517
다강산방,경상북도 청도군 각북면 오산7길 11-31,35.7146315869084,128.559350829888
투썸플레이스,경상북도 포항시 남구 송도해안길 68,36.0366672110305,129.378760700438
엔제리너스경북,경상북도 의성군 의성읍 군청길 9,36.3533964169468,128.695680479215
카페507,경상북도 경산시 압량읍 인안길20길 81,35.8647286453194,128.790774146944
그냥좋은카페,경상북도 구미시 인동13길 30,36.1018026991845,128.427842405083
마음의풍경,경상북도 경산시 장산로50길 1,35.8178442622322,128.751112250118
카페숲,경상북도 문경시 영신로 55,36.5935521118572,128.205238774934
다빈치,경상북도 경산시 강변동로 278,35.8345919737229,128.73340532626
카페조감도,경상북도 경산시 삼성현로 484-2,35.8059014179756,128.751165761685
은하수,경상북도 경산시 중앙초등길6길 24,35.8241546212255,128.734891903996
카페다빈치싱그린,경상북도 청도군 화양읍 고수구길 2,35.64770807053,128.735127709998
막다방,경상북도 경산시 진량읍 대구대로 280,35.8953601418689,128.851980000765
대희카페,경상북도 청도군 풍각면 헐티로 195,35.6414794972849,128.619781529782
카페ARA,경상북도 청도군 청도읍 고수구길 67-1,35.644048593806,128.741012845562
문향커피숍,경상북도 청도군 풍각면 송서로 43,35.6398882705531,128.615451905018
카펠루스,경상북도 경산시 하양읍 가마실길 50,35.9110801490541,128.802059506704
커피센티멘탈,경상북도 경산시 진량읍 대구대로 252-1,35.8968661604463,128.850589335872
커피이즈,경상북도 경산시 압량읍 압독3로2길 16,35.8397982665945,128.765731405521
노스커피,경상북도 안동시 중앙로 50-1,36.5651115623767,128.732039616458
산토리니,경상북도 경산시 삼풍로 23-20,35.8233791635047,128.753864750173
카페리코계양점,경상북도 경산시 계양로35길 2,35.8315406822891,128.748806302109
꽃자락,경상북도 경산시 경산로13길 29-10,35.8135200267035,128.731772967931
빈,경상북도 경산시 박물관로 39,35.8152541839334,128.76308330613
베로에스프레소,경상북도 경산시 성암로 45,35.8232917718935,128.72259952268
영빈커피타임,경상북도 경산시 원효로7길 32,35.8246813324248,128.738659620374
브라우니,경상북도 경산시 청운로 14-3,35.8370465766514,128.753318821395
스텀프하우스,경상북도 경산시 하양읍 대경로 669,35.9086343310049,128.814598251063
씨코드,경상북도 경산시 대학로12길 6,35.8330965004697,128.728842447076
커피트리,경상북도 경산시 자인면 원효로 737-6,35.8160485415065,128.815078963267
카페쿠시,경상북도 경산시 백천동로 69,35.8024096584846,128.735720536327
카페BORN본,경상북도 청도군 청도읍 새마을로 1325,35.6498044524867,128.750353206809
알프하임,경상북도 청도군 화양읍 송금길 65,35.7123430188115,128.72177353674
커피왕삼풍점,경상북도 경산시 삼풍로 10,35.8214443424822,128.754820332461
호이차,경상북도 경산시 대학로 289,35.8371266496578,128.753485612675
커피리안,경상북도 경산시 진량읍 봉회1길 26,35.8806538977216,128.816504502353
아르떼,경상북도 경산시 대학로 307,35.8380996499125,128.754989140143
카페티니,경상북도 경산시 경산로 147-4,35.821540838928,128.727475184967
이디야커피경산,경상북도 경산시 경안로 186,35.8242640560658,128.737626506518
쏠크,경상북도 경산시 진량읍 봉황길 75,35.883760621491,128.826138746425
카페포스트스토리,경상북도 경산시 중앙로17길 67,35.8292423132088,128.734197259803
꽃자리,경상북도 청도군 화양읍 도주관로 177,35.6507477009957,128.707691107047
카페아베크,경상북도 경산시 하양읍 가마실길 50,35.9110801490541,128.802059506704
코모커피,경상북도 경산시 경산로16길 2,35.816010500278,128.731308913952
삼성커피숍,경상북도 경산시 자인면 설총로 887,35.8155316966423,128.826095315936
트리즈,경상북도 경산시 청운1로 14,35.837872967019,128.752330418584
가람커피숍,경상북도 청도군 풍각면 송서10길 3-2,35.6416397454142,128.616657873553
커피맘,경상북도 경산시 하양읍 대경로159길 23-1,35.9165996545147,128.824164355746
카페빈,경상북도 경산시 진량읍 공단1로 20,35.8736292242991,128.820983824436
까르페,경상북도 경산시 중앙로18길 8,35.8229181916062,128.736629092329
투썸플레이스경산,경상북도 경산시 백자로 55,35.8113461377591,128.753928050992
밀톤,경상북도 청도군 운문면 신화랑길 6,35.718444714013,128.920032224941
하바나포토라인,경상북도 청도군 화양읍 청화로 69,35.6481673947521,128.73518713206
로뎀,경상북도 경산시 강변동로 358,35.8403037668064,128.729384353772
아인스,경상북도 경산시 원효로36길 22,35.8180085711709,128.755097665559
영암휴게실,경상북도 의성군 봉양면 도리원1길 66-1,36.2996538936338,128.581101353698
니모,경상북도 경산시 백양로35길 13,35.8121177697675,128.760209471136
카페리코,경상북도 경산시 경산로 53,35.8138163686959,128.73195273867
이슬미로,경상북도 청도군 화양읍 이슬미로 145,35.6798594146159,128.70645667999
오던,경상북도 경산시 압량읍 압독로 199,35.8320816610451,128.785491538393
유나인,경상북도 포항시 남구 오천읍 냉천로236번길 78,35.9734394121256,129.40030035101
이뭐꼬,경상북도 청도군 운문면 운문사길 106,35.6749544056792,128.957200851594
커피TOAST,경상북도 청도군 청도읍 청화로 223,35.6394475829148,128.747518056913
커피마마여성아이점,경상북도 포항시 북구 우창동로22번길 7,36.0543698435719,129.361988671281
인삼휴게나라,경상북도 영주시 풍기읍 인삼로 3-1,36.8731536341826,128.524363250733
중앙커피숍,경상북도 영천시 금호읍 금호로 106,35.9312954642327,128.873232738135
카페카리타스,경상북도 구미시 박정희로 123,36.0905759041413,128.348938863242
커피니구미,경상북도 구미시 봉곡로 166,36.1534825520762,128.311020266524
인송쥬,경상북도 성주군 수륜면 참별로 1009,35.8405583228114,128.188027463636
엔젤리너스문경새재점,경상북도 문경시 문경읍 새재로 928,36.7612577949002,128.076911533819
이디야커피칠곡석적점,경상북도 칠곡군 석적읍 북중리12길 2,36.0772906843447,128.41408655399
마리엔,경상북도 칠곡군 북삼읍 금오대로10길 19-4,36.069526601661,128.350289094831
분다,경상북도 구미시 봉곡로15길 59,36.1535466957324,128.307119679539
뿌리깊은나무,경상북도 구미시 인동가산로 591-11,36.098908709454,128.473593511939
카페,경상북도 구미시 산호대로 233,36.1042824112226,128.384984659087
카페공간,경상북도 칠곡군 석적읍 서중리1길 32,36.0772250477767,128.404271406342
리틀빈,경상북도 구미시 구미대로22길 11,36.1137982787564,128.365414582439
커피베이구미금,경상북도 구미시 공원로 332,36.1058371613507,128.329014151595
핸즈커피원호점,경상북도 구미시 고아읍 문장로26길 3,36.1523231484245,128.330008367286
비엔나커피하우스,경상북도 구미시 천생산길 33-6,36.0961126924857,128.450744133617
빠띠시애임수점,경상북도 구미시 3공단1로 299,36.1087782955704,128.401933914526
카페해링턴,경상북도 칠곡군 석적읍 남율로9길 80,36.0690211359445,128.407548794924
커피수리공,경상북도 구미시 금오산로 190,36.123686866958,128.324222743966
카페휴림,경상북도 구미시 고아읍 선산대로 625,36.1847157092977,128.348977899484
커피살롱,경상북도 구미시 금오산로22길 6,36.1247912222828,128.329082112222
달콤커피효자,경상북도 포항시 남구 형산강북로 125,36.0046347623053,129.340834980673
바이커스캠프호두당,경상북도 구미시 구미대로12길 5,36.1053406394241,128.363598340767
오감,경상북도 구미시 왕산로 68,36.0863808816403,128.368341266643
캠토커피전문점,경상북도 구미시 송원동로 72,36.1228125462087,128.35294744161
엘피스,경상북도 구미시 금오산로6길 13-3,36.128755681251,128.336020190311
안여사식당,경상북도 구미시 선산읍 선상서로 200,36.2410088462514,128.280803837556
님프,경상북도 구미시 인동북길 117,36.0974012903815,128.428706989568
플로렌스,경상북도 구미시 봉곡로18길 31,36.1513656077811,128.314056923795
까페수,경상북도 상주시 지천1길 21,36.3616266532054,128.150361502053
커피스토리,경상북도 구미시 경은로 96,36.1144303187189,128.337369869546
파스쿠찌구미,경상북도 구미시 봉곡남로25길 3,36.1516903811843,128.317358851182
쇼콜라,경상북도 경주시 영불로 261,35.7850584345734,129.328962943381
리타,경상북도 김천시 삼락택지길 48,36.1428079776686,128.094860519983
태담컴퍼니선산휴게소하행드롭탑,경상북도 구미시 옥성면 중부내륙고속도로 129,36.2752460461178,128.249281691609
솔향,경상북도 예천군 예천읍 맛고을길 23-2,36.6554990328319,128.451522350521
단밀면,경상북도 의성군 단밀면 도안로 1674-7,36.3740053900262,128.382698496254
마사커피,경상북도 포항시 남구 대이로46번길 15,36.0203968969916,129.343298568278
롤링핀구미,경상북도 구미시 인동가산로 599,36.0981210885009,128.474477236093
이디야커피경북예천점,경상북도 예천군 예천읍 효자로 100-1,36.6571989538167,128.454776044557
금오당,경상북도 구미시 선기로2길 6,36.1309855369917,128.318175414465
마실커피,경상북도 경산시 대학로61길 19,35.8393059038513,128.753794020609
황남Place,경상북도 경주시 포석로 1071,35.8368188373589,129.209446327908
카페힐,경상북도 경주시 다불로 128,35.871092972772,129.235269228635
엠엠엠,경상북도 포항시 남구 희망대로 1173-2,36.0343137049682,129.38043952188
띠아모,경상북도 경주시 북성로66번길 1,35.8473234696789,129.20897483248
유야,경상북도 포항시 북구 천마로46번길 24,36.0805401025493,129.399654739651
글린트,경상북도 구미시 형곡로31길 8,36.1073836118243,128.33686213574
러블리,경상북도 구미시 금오산상가길 35-11,36.1113277640122,128.314963783073
올라이드,경상북도 구미시 도개면 도안로 119,36.300790650448,128.330064804583
토닷커피,경상북도 경산시 경산로54길 27,35.8325668145766,128.725517100779
카페더홈,경상북도 구미시 봉곡서로 3,36.1509260152133,128.306309316202
그린체어커피,경상북도 청송군 안덕면 청송로 1791,36.2896375141927,128.941253100269
커피앤테이크,경상북도 경산시 압량읍 압독3로2길 4,35.8402753781739,128.764407664891
소호,경상북도 구미시 금오대로 300,36.0712775348372,128.349464214794
이디야커피충무대체력단련장점,경상북도 포항시 남구 동해안로 5923,35.9940662083604,129.415104186244
